[
  {
    "name": "ارجوان المدينة",
    "umrah_hotel_code": "4800000865",
    "g_rating": 0,
    "g_total": "0",
    "description": "ارجوان المدينة\r\n",
    "gate_shortest_distance": [
      {
        "distance": 580,
        "gate_name": "King Saud Gate",
        "gate_number": 7,
        "gate_latitude": "24.468070000000000",
        "gate_longitude": "39.609085000000000"
      },
      {
        "distance": 600,
        "gate_name": "King Saud Gate",
        "gate_number": 8,
        "gate_latitude": "24.468210000000000",
        "gate_longitude": "39.609135000000000"
      },
      {
        "distance": 620,
        "gate_name": "King Saud Gate",
        "gate_number": 9,
        "gate_latitude": "24.468542000000000",
        "gate_longitude": "39.609085000000000"
      },
      {
        "distance": 630,
        "gate_name": "Quba Gate",
        "gate_number": 5,
        "gate_latitude": "24.467772000000000",
        "gate_longitude": "39.609860000000000"
      },
      {
        "distance": 640,
        "gate_name": "Aqiq gate Gate",
        "gate_number": 11,
        "gate_latitude": "24.468742000000000",
        "gate_longitude": "39.609190000000000"
      },
      {
        "distance": 680,
        "gate_name": "Salam Gate",
        "gate_number": 1,
        "gate_latitude": "24.467503000000000",
        "gate_longitude": "39.610596000000000"
      },
      {
        "distance": 690,
        "gate_name": "Rahmah Gate",
        "gate_number": 3,
        "gate_latitude": "24.467587000000000",
        "gate_longitude": "39.610634000000000"
      },
      {
        "distance": 700,
        "gate_name": "Hijrah Gate",
        "gate_number": 4,
        "gate_latitude": "24.467897000000000",
        "gate_longitude": "39.610560000000000"
      },
      {
        "distance": 730,
        "gate_name": "janayiz Gate",
        "gate_number": 42,
        "gate_latitude": "24.467240000000000",
        "gate_longitude": "39.611210000000000"
      },
      {
        "distance": 800,
        "gate_name": "Umar Bin Khataab Gate",
        "gate_number": 18,
        "gate_latitude": "24.469954000000000",
        "gate_longitude": "39.610130000000000"
      },
      {
        "distance": 800,
        "gate_name": "Bilal Gate",
        "gate_number": 38,
        "gate_latitude": "24.467709000000000",
        "gate_longitude": "39.611700000000000"
      },
      {
        "distance": 800,
        "gate_name": "Baqee gate",
        "gate_number": 41,
        "gate_latitude": "24.467480000000000",
        "gate_longitude": "39.611830000000000"
      },
      {
        "distance": 820,
        "gate_name": "Badr Gate",
        "gate_number": 19,
        "gate_latitude": "24.469847000000000",
        "gate_longitude": "39.610504000000000"
      },
      {
        "distance": 860,
        "gate_name": "King Fahd Gate",
        "gate_number": 20,
        "gate_latitude": "24.469950000000000",
        "gate_longitude": "39.610870000000000"
      },
      {
        "distance": 860,
        "gate_name": "Makkah Gate",
        "gate_number": 37,
        "gate_latitude": "24.467653000000000",
        "gate_longitude": "39.612354000000000"
      },
      {
        "distance": 870,
        "gate_name": "King Fahd Gate",
        "gate_number": 21,
        "gate_latitude": "24.469920000000000",
        "gate_longitude": "39.611100000000000"
      },
      {
        "distance": 890,
        "gate_name": "King Fahd Gate",
        "gate_number": 22,
        "gate_latitude": "24.469948000000000",
        "gate_longitude": "39.611378000000000"
      },
      {
        "distance": 960,
        "gate_name": "King Abdul Aziz GAte",
        "gate_number": 35,
        "gate_latitude": "24.468110000000000",
        "gate_longitude": "39.613285000000000"
      },
      {
        "distance": 970,
        "gate_name": "Ali Bin Abi Taleb Gate",
        "gate_number": 32,
        "gate_latitude": "24.468733000000000",
        "gate_longitude": "39.613125000000000"
      },
      {
        "distance": 970,
        "gate_name": "King Abdul Aziz Gate",
        "gate_number": 33,
        "gate_latitude": "24.468544000000000",
        "gate_longitude": "39.613182000000000"
      },
      {
        "distance": 970,
        "gate_name": "King Abdul Aziz Gate",
        "gate_number": 34,
        "gate_latitude": "24.468344000000000",
        "gate_longitude": "39.613290000000000"
      }
    ],
    "door_shortest_distance": [],
    "hotel_latitude": 24.464953,
    "hotel_longitude": 39.604442,
    "address": "الملك فيصل بن عبدالعزيز",
    "amount": 7781.32,
    "discount_amount": 7781.32,
    "without_discount": 7781.32,
    "is_discount_applied": false,
    "rating": 1,
    "favorite": false,
    "nabawi_distance": 1300,
    "haram_distance": null,
    "amenities": [
      {
        "name": " عام",
        "amenity_type": "hotel"
      },
      {
        "name": "تكييف",
        "amenity_type": "hotel"
      },
      {
        "name": "متجر صغير",
        "amenity_type": "hotel"
      },
      {
        "name": "محلات تجارية",
        "amenity_type": "hotel"
      },
      {
        "name": "تدفئة",
        "amenity_type": "hotel"
      },
      {
        "name": "صناديق أمانات",
        "amenity_type": "hotel"
      },
      {
        "name": "غرف لغير المدخنين",
        "amenity_type": "hotel"
      },
      {
        "name": "مصعد",
        "amenity_type": "hotel"
      },
      {
        "name": "مطعم",
        "amenity_type": "hotel"
      },
      {
        "name": "جرس الإنذار",
        "amenity_type": "hotel"
      },
      {
        "name": "أجهزة إنذار الدخان",
        "amenity_type": "hotel"
      },
      {
        "name": "طفايات حريق",
        "amenity_type": "hotel"
      }
    ],
    "meal_title": null,
    "meal_provided": false,
    "providers": [
      {
        "provider": "hudxconnect",
        "vendor": "hudxconnect",
        "amount": 7781.32,
        "hotel_code": "18727_ar-AE",
        "currencyCode": "SAR"
      }
    ],
    "images": {
      "image_url": "//umrah-hotel.s3.amazonaws.com/public/static_image/tmp/tmpt5ip58pm7192.jpg",
      "image_webp_url": "https://umrah-hotel.s3.amazonaws.com/public/static_image/hotel/webp/tmp/tmpt5ip58pm5063.webp",
      "title": "Arjwan Almadina",
      "is_default": true,
      "image_type": "hotel",
      "priority": 10
    },
    "has_special_deal": false,
    "config": {
      "location": "MADEENA"
    }
  },
  {
    "name": "المدينة الذهبي",
    "umrah_hotel_code": "4800000912",
    "g_rating": 3.7,
    "g_total": "599",
    "description": "يتميز فندق المدينة الذهبي بأنه أحد الفنادق القلائل المطلة مباشرة على ساحة المسجد النبوي الشريف من الجهة الجنوبية بالمدينة المنورة كما يعتبر واحد من أقرب الفنادق لباب السلام وهو مدخل زيارة قبر الرسول صلى الله عليه وسلم والمدخل الرئيسي للروضة الشريفة.\r\nيحتاج النزيل للمشي لمسافة 80 متر فقط للوصول إلى منتصف ساحة الحرم \r\nكما يتميز الفندق بواجهته الزجاجية التي تملأ الجهة المطلة على الحرم من جميع طوابقه والبالغ عددها 10 طوابق  ",
    "gate_shortest_distance": [
      {
        "distance": 160,
        "gate_name": "janayiz Gate",
        "gate_number": 42,
        "gate_latitude": "24.467240000000000",
        "gate_longitude": "39.611210000000000"
      },
      {
        "distance": 170,
        "gate_name": "Salam Gate",
        "gate_number": 1,
        "gate_latitude": "24.467503000000000",
        "gate_longitude": "39.610596000000000"
      },
      {
        "distance": 180,
        "gate_name": "Rahmah Gate",
        "gate_number": 3,
        "gate_latitude": "24.467587000000000",
        "gate_longitude": "39.610634000000000"
      },
      {
        "distance": 200,
        "gate_name": "Quba Gate",
        "gate_number": 5,
        "gate_latitude": "24.467772000000000",
        "gate_longitude": "39.609860000000000"
      },
      {
        "distance": 210,
        "gate_name": "Hijrah Gate",
        "gate_number": 4,
        "gate_latitude": "24.467897000000000",
        "gate_longitude": "39.610560000000000"
      },
      {
        "distance": 220,
        "gate_name": "Baqee gate",
        "gate_number": 41,
        "gate_latitude": "24.467480000000000",
        "gate_longitude": "39.611830000000000"
      },
      {
        "distance": 230,
        "gate_name": "Bilal Gate",
        "gate_number": 38,
        "gate_latitude": "24.467709000000000",
        "gate_longitude": "39.611700000000000"
      },
      {
        "distance": 260,
        "gate_name": "King Saud Gate",
        "gate_number": 7,
        "gate_latitude": "24.468070000000000",
        "gate_longitude": "39.609085000000000"
      },
      {
        "distance": 270,
        "gate_name": "King Saud Gate",
        "gate_number": 8,
        "gate_latitude": "24.468210000000000",
        "gate_longitude": "39.609135000000000"
      },
      {
        "distance": 270,
        "gate_name": "Makkah Gate",
        "gate_number": 37,
        "gate_latitude": "24.467653000000000",
        "gate_longitude": "39.612354000000000"
      },
      {
        "distance": 310,
        "gate_name": "King Saud Gate",
        "gate_number": 9,
        "gate_latitude": "24.468542000000000",
        "gate_longitude": "39.609085000000000"
      },
      {
        "distance": 320,
        "gate_name": "Aqiq gate Gate",
        "gate_number": 11,
        "gate_latitude": "24.468742000000000",
        "gate_longitude": "39.609190000000000"
      },
      {
        "distance": 380,
        "gate_name": "King Abdul Aziz GAte",
        "gate_number": 35,
        "gate_latitude": "24.468110000000000",
        "gate_longitude": "39.613285000000000"
      },
      {
        "distance": 400,
        "gate_name": "King Abdul Aziz Gate",
        "gate_number": 33,
        "gate_latitude": "24.468544000000000",
        "gate_longitude": "39.613182000000000"
      },
      {
        "distance": 400,
        "gate_name": "King Abdul Aziz Gate",
        "gate_number": 34,
        "gate_latitude": "24.468344000000000",
        "gate_longitude": "39.613290000000000"
      },
      {
        "distance": 410,
        "gate_name": "Ali Bin Abi Taleb Gate",
        "gate_number": 32,
        "gate_latitude": "24.468733000000000",
        "gate_longitude": "39.613125000000000"
      },
      {
        "distance": 420,
        "gate_name": "Badr Gate",
        "gate_number": 19,
        "gate_latitude": "24.469847000000000",
        "gate_longitude": "39.610504000000000"
      },
      {
        "distance": 440,
        "gate_name": "Umar Bin Khataab Gate",
        "gate_number": 18,
        "gate_latitude": "24.469954000000000",
        "gate_longitude": "39.610130000000000"
      },
      {
        "distance": 440,
        "gate_name": "King Fahd Gate",
        "gate_number": 20,
        "gate_latitude": "24.469950000000000",
        "gate_longitude": "39.610870000000000"
      },
      {
        "distance": 440,
        "gate_name": "King Fahd Gate",
        "gate_number": 21,
        "gate_latitude": "24.469920000000000",
        "gate_longitude": "39.611100000000000"
      },
      {
        "distance": 450,
        "gate_name": "King Fahd Gate",
        "gate_number": 22,
        "gate_latitude": "24.469948000000000",
        "gate_longitude": "39.611378000000000"
      },
      {
        "distance": 610,
        "gate_name": "Siddique Gate",
        "gate_number": 2,
        "gate_latitude": "24.467587000000000",
        "gate_longitude": "39.616063400000000"
      }
    ],
    "door_shortest_distance": [],
    "hotel_latitude": 24.46602,
    "hotel_longitude": 39.61033,
    "address": null,
    "amount": 7788.84,
    "discount_amount": 7788.84,
    "without_discount": 7788.84,
    "is_discount_applied": false,
    "rating": 1,
    "favorite": false,
    "nabawi_distance": 700,
    "haram_distance": null,
    "amenities": [],
    "meal_title": null,
    "meal_provided": false,
    "providers": [
      {
        "provider": "hudxconnect",
        "vendor": "hudxconnect",
        "amount": 7788.84,
        "hotel_code": "18927_ar-AE",
        "currencyCode": "SAR"
      }
    ],
    "images": {
      "image_url": "//umrah-hotel.s3.amazonaws.com/public/static_image/HotelFrontView8762.jpg",
      "image_webp_url": "https://umrah-hotel.s3.amazonaws.com/public/static_image/hotel/webp/HotelFrontView4894.webp",
      "title": "Hotel Front View",
      "is_default": true,
      "image_type": "Hotel",
      "priority": 1
    },
    "has_special_deal": false,
    "config": {
      "location": "MADEENA"
    }
  },
  {
    "name": "وقف الصافي",
    "umrah_hotel_code": "4800000794",
    "g_rating": 0,
    "g_total": "0",
    "description": "يقع فندق البسفور وقف الصافي في المدينة المنورة ، على بعد 250 متر من المسجد النبوي ، ويوفر أماكن إقامة مكيفة مع خدمة الواي فاي المجانية. يقع مكان الإقامة على بعد حوالي 1.5 كم من البازار القديم وعلى بعد كيلومترين من مول مزايا\r\nيقع مكان الإقامة على بعد 2.7 كم من مقبرة البقيع وعلى بعد 3.7 كم من النور مول.\r\n\r\nتم تجهيز جميع غرف الضيوف في الفندق بمنطقة جلوس وتلفزيون بشاشة مسطحة.\r\n\r\nيمكن الاستمتاع بوجبة إفطار كونتيننتال في مكان الإقامة.\r\n\r\nتشمل الخدمات والتسهيلات الأخرى المتوفرة في فندق البسفور وقف الصافي مركزًا لرجال الأعمال وماكينة صراف آلي وصحف وجهاز فاكس وآلة تصوير. يتحدث الموظفون اللغتين العربية والبنغالية في مكتب الاستقبال الذي يعمل على مدار الساعة ، وعلى استعداد لتقديم المساعدة في أي وقت من اليوم.\r\n\r\nيقع مسجد قباء على بعد 4 كم من مكان الإقامة ، في حين يقع مسجد القبلتين على بعد 5 كم. يعتبر مطار الأمير محمد بن عبد العزيز الدولي المطار الأقرب لـ البسفور وقف الصافي\r\n",
    "gate_shortest_distance": [
      {
        "distance": 510,
        "gate_name": "King Saud Gate",
        "gate_number": 9,
        "gate_latitude": "24.468542000000000",
        "gate_longitude": "39.609085000000000"
      },
      {
        "distance": 510,
        "gate_name": "Aqiq gate Gate",
        "gate_number": 11,
        "gate_latitude": "24.468742000000000",
        "gate_longitude": "39.609190000000000"
      },
      {
        "distance": 530,
        "gate_name": "King Saud Gate",
        "gate_number": 8,
        "gate_latitude": "24.468210000000000",
        "gate_longitude": "39.609135000000000"
      },
      {
        "distance": 540,
        "gate_name": "King Saud Gate",
        "gate_number": 7,
        "gate_latitude": "24.468070000000000",
        "gate_longitude": "39.609085000000000"
      },
      {
        "distance": 580,
        "gate_name": "Umar Bin Khataab Gate",
        "gate_number": 18,
        "gate_latitude": "24.469954000000000",
        "gate_longitude": "39.610130000000000"
      },
      {
        "distance": 620,
        "gate_name": "Quba Gate",
        "gate_number": 5,
        "gate_latitude": "24.467772000000000",
        "gate_longitude": "39.609860000000000"
      },
      {
        "distance": 620,
        "gate_name": "Badr Gate",
        "gate_number": 19,
        "gate_latitude": "24.469847000000000",
        "gate_longitude": "39.610504000000000"
      },
      {
        "distance": 650,
        "gate_name": "King Fahd Gate",
        "gate_number": 20,
        "gate_latitude": "24.469950000000000",
        "gate_longitude": "39.610870000000000"
      },
      {
        "distance": 680,
        "gate_name": "Hijrah Gate",
        "gate_number": 4,
        "gate_latitude": "24.467897000000000",
        "gate_longitude": "39.610560000000000"
      },
      {
        "distance": 680,
        "gate_name": "King Fahd Gate",
        "gate_number": 21,
        "gate_latitude": "24.469920000000000",
        "gate_longitude": "39.611100000000000"
      },
      {
        "distance": 700,
        "gate_name": "Salam Gate",
        "gate_number": 1,
        "gate_latitude": "24.467503000000000",
        "gate_longitude": "39.610596000000000"
      },
      {
        "distance": 700,
        "gate_name": "Rahmah Gate",
        "gate_number": 3,
        "gate_latitude": "24.467587000000000",
        "gate_longitude": "39.610634000000000"
      },
      {
        "distance": 710,
        "gate_name": "King Fahd Gate",
        "gate_number": 22,
        "gate_latitude": "24.469948000000000",
        "gate_longitude": "39.611378000000000"
      },
      {
        "distance": 770,
        "gate_name": "janayiz Gate",
        "gate_number": 42,
        "gate_latitude": "24.467240000000000",
        "gate_longitude": "39.611210000000000"
      },
      {
        "distance": 790,
        "gate_name": "Bilal Gate",
        "gate_number": 38,
        "gate_latitude": "24.467709000000000",
        "gate_longitude": "39.611700000000000"
      },
      {
        "distance": 810,
        "gate_name": "Baqee gate",
        "gate_number": 41,
        "gate_latitude": "24.467480000000000",
        "gate_longitude": "39.611830000000000"
      },
      {
        "distance": 860,
        "gate_name": "Makkah Gate",
        "gate_number": 37,
        "gate_latitude": "24.467653000000000",
        "gate_longitude": "39.612354000000000"
      },
      {
        "distance": 900,
        "gate_name": "Ali Bin Abi Taleb Gate",
        "gate_number": 32,
        "gate_latitude": "24.468733000000000",
        "gate_longitude": "39.613125000000000"
      },
      {
        "distance": 910,
        "gate_name": "King Abdul Aziz Gate",
        "gate_number": 33,
        "gate_latitude": "24.468544000000000",
        "gate_longitude": "39.613182000000000"
      },
      {
        "distance": 930,
        "gate_name": "King Abdul Aziz Gate",
        "gate_number": 34,
        "gate_latitude": "24.468344000000000",
        "gate_longitude": "39.613290000000000"
      },
      {
        "distance": 930,
        "gate_name": "King Abdul Aziz GAte",
        "gate_number": 35,
        "gate_latitude": "24.468110000000000",
        "gate_longitude": "39.613285000000000"
      }
    ],
    "door_shortest_distance": [],
    "hotel_latitude": 24.4703683,
    "hotel_longitude": 39.6044379,
    "address": "الزبير بن العوام",
    "amount": 7969.28,
    "discount_amount": 7969.28,
    "without_discount": 7969.28,
    "is_discount_applied": false,
    "rating": 3,
    "favorite": false,
    "nabawi_distance": 1200,
    "haram_distance": null,
    "amenities": [
      {
        "name": "واي فاي ",
        "amenity_type": "hotel"
      },
      {
        "name": " منطقة جلوس عامة (لوبي)",
        "amenity_type": "hotel"
      },
      {
        "name": "مرافق لذوي الاحتياجات الخاصة",
        "amenity_type": "hotel"
      },
      {
        "name": "ممنوع التدخين في كل الأماكن",
        "amenity_type": "hotel"
      },
      {
        "name": "تكييف",
        "amenity_type": "hotel"
      },
      {
        "name": "متجر صغير",
        "amenity_type": "hotel"
      },
      {
        "name": "محلات تجارية",
        "amenity_type": "hotel"
      },
      {
        "name": "تدفئة",
        "amenity_type": "hotel"
      },
      {
        "name": "صناديق أمانات",
        "amenity_type": "hotel"
      },
      {
        "name": "غرف لغير المدخنين",
        "amenity_type": "hotel"
      },
      {
        "name": "مصعد",
        "amenity_type": "hotel"
      },
      {
        "name": "موقف سيارات",
        "amenity_type": "hotel"
      },
      {
        "name": "زجاجة مياه (رسوم إضافية)",
        "amenity_type": "hotel"
      },
      {
        "name": "مطعم",
        "amenity_type": "hotel"
      },
      {
        "name": "فواكه (رسوم إضافية)",
        "amenity_type": "hotel"
      },
      {
        "name": "بار الوجبات الخفيفة",
        "amenity_type": "hotel"
      },
      {
        "name": "شوكولاته أو بسكويت (رسوم إضافية)",
        "amenity_type": "hotel"
      },
      {
        "name": "خدمة تنظيف يومية",
        "amenity_type": "hotel"
      },
      {
        "name": "مرافق غسيل الملابس (رسوم إضافية)",
        "amenity_type": "hotel"
      },
      {
        "name": "بطاقة الكترونية لفتح الباب",
        "amenity_type": "hotel"
      },
      {
        "name": "جرس الإنذار",
        "amenity_type": "hotel"
      },
      {
        "name": "أجهزة إنذار الدخان",
        "amenity_type": "hotel"
      },
      {
        "name": "كاميرات دوائر تلفزيونية مغلقة في مناطق الاقامة المشتركة",
        "amenity_type": "hotel"
      },
      {
        "name": "كاميرات دوائر تلفزيونية مغلقة خارج مكان الإقامة",
        "amenity_type": "hotel"
      },
      {
        "name": "طفايات حريق",
        "amenity_type": "hotel"
      },
      {
        "name": "مركز أعمال (رسوم إضافية)",
        "amenity_type": "hotel"
      }
    ],
    "meal_title": null,
    "meal_provided": false,
    "providers": [
      {
        "provider": "hudxconnect",
        "vendor": "hudxconnect",
        "amount": 7969.28,
        "hotel_code": "18210_ar-AE",
        "currencyCode": "SAR"
      }
    ],
    "images": {
      "image_url": "//umrah-hotel.s3.amazonaws.com/public/static_image/Room4531.jpg",
      "image_webp_url": "https://umrah-hotel.s3.amazonaws.com/public/static_image/hotel/webp/Room2256.webp",
      "title": "Room",
      "is_default": true,
      "image_type": "Bedroom ",
      "priority": 0
    },
    "has_special_deal": false,
    "config": {
      "location": "MADEENA"
    }
  },
  {
    "name": "رحاب طابة",
    "umrah_hotel_code": "4800000869",
    "g_rating": 0,
    "g_total": "0",
    "description": "يقع في المدينة المنورة، ويوفر أماكن إقامة مفروشة ببساطة. يقع رحاب طابة   على بعد عشرة كم من المسجد النبوي سيرًا على الأقدام من مكان الإقامة.\r\nتتميز جميع الغرف المكيفة بأرضيات من البلاط، وتحتوي جميعها على منطقة جلوس مع تلفزيون بشاشة مسطحة ومكتب وثلاجة. كما تشتمل الحمامات الخاصة على حوض استحمام ومناشف.\r\nيضم رحاب طابة  مكتب استقبال يعمل على مدار الساعة وسوق صغير في الموقع. وتشمل المرافق الأخرى المتوفرة مرافق الاجتماعات وخدمات غسيل الملابس.\r\nيقع الفندق على بعد اثنان ونص كم من المدينة مول وعلى بعد ثلاث ونص  كم من النور مول..\r\n",
    "gate_shortest_distance": [
      {
        "distance": 710,
        "gate_name": "King Saud Gate",
        "gate_number": 7,
        "gate_latitude": "24.468070000000000",
        "gate_longitude": "39.609085000000000"
      },
      {
        "distance": 730,
        "gate_name": "King Saud Gate",
        "gate_number": 8,
        "gate_latitude": "24.468210000000000",
        "gate_longitude": "39.609135000000000"
      },
      {
        "distance": 750,
        "gate_name": "King Saud Gate",
        "gate_number": 9,
        "gate_latitude": "24.468542000000000",
        "gate_longitude": "39.609085000000000"
      },
      {
        "distance": 760,
        "gate_name": "Quba Gate",
        "gate_number": 5,
        "gate_latitude": "24.467772000000000",
        "gate_longitude": "39.609860000000000"
      },
      {
        "distance": 770,
        "gate_name": "Aqiq gate Gate",
        "gate_number": 11,
        "gate_latitude": "24.468742000000000",
        "gate_longitude": "39.609190000000000"
      },
      {
        "distance": 810,
        "gate_name": "Salam Gate",
        "gate_number": 1,
        "gate_latitude": "24.467503000000000",
        "gate_longitude": "39.610596000000000"
      },
      {
        "distance": 810,
        "gate_name": "Rahmah Gate",
        "gate_number": 3,
        "gate_latitude": "24.467587000000000",
        "gate_longitude": "39.610634000000000"
      },
      {
        "distance": 820,
        "gate_name": "Hijrah Gate",
        "gate_number": 4,
        "gate_latitude": "24.467897000000000",
        "gate_longitude": "39.610560000000000"
      },
      {
        "distance": 850,
        "gate_name": "janayiz Gate",
        "gate_number": 42,
        "gate_latitude": "24.467240000000000",
        "gate_longitude": "39.611210000000000"
      },
      {
        "distance": 910,
        "gate_name": "Bilal Gate",
        "gate_number": 38,
        "gate_latitude": "24.467709000000000",
        "gate_longitude": "39.611700000000000"
      },
      {
        "distance": 920,
        "gate_name": "Baqee gate",
        "gate_number": 41,
        "gate_latitude": "24.467480000000000",
        "gate_longitude": "39.611830000000000"
      },
      {
        "distance": 930,
        "gate_name": "Umar Bin Khataab Gate",
        "gate_number": 18,
        "gate_latitude": "24.469954000000000",
        "gate_longitude": "39.610130000000000"
      },
      {
        "distance": 950,
        "gate_name": "Badr Gate",
        "gate_number": 19,
        "gate_latitude": "24.469847000000000",
        "gate_longitude": "39.610504000000000"
      },
      {
        "distance": 970,
        "gate_name": "Makkah Gate",
        "gate_number": 37,
        "gate_latitude": "24.467653000000000",
        "gate_longitude": "39.612354000000000"
      },
      {
        "distance": 990,
        "gate_name": "King Fahd Gate",
        "gate_number": 20,
        "gate_latitude": "24.469950000000000",
        "gate_longitude": "39.610870000000000"
      }
    ],
    "door_shortest_distance": [],
    "hotel_latitude": 24.4639429,
    "hotel_longitude": 39.6036733,
    "address": "الحسن بن علي",
    "amount": 22817.7,
    "discount_amount": 22817.7,
    "without_discount": 22817.7,
    "is_discount_applied": false,
    "rating": 1,
    "favorite": false,
    "nabawi_distance": 1400,
    "haram_distance": null,
    "amenities": [
      {
        "name": "ملائمة لمستخدمي الكراسي المتحركة",
        "amenity_type": "hotel"
      },
      {
        "name": "واي فاي مجاني",
        "amenity_type": "hotel"
      },
      {
        "name": "مرافق لذوي الاحتياجات الخاصة",
        "amenity_type": "hotel"
      },
      {
        "name": "ممنوع التدخين في كل الأماكن",
        "amenity_type": "hotel"
      },
      {
        "name": "تكييف",
        "amenity_type": "hotel"
      },
      {
        "name": "صناديق أمانات",
        "amenity_type": "hotel"
      },
      {
        "name": "غرف لغير المدخنين",
        "amenity_type": "hotel"
      },
      {
        "name": "مصعد",
        "amenity_type": "hotel"
      },
      {
        "name": "زجاجة مياه (رسوم إضافية)",
        "amenity_type": "hotel"
      },
      {
        "name": "مطعم",
        "amenity_type": "hotel"
      },
      {
        "name": "فواكه (رسوم إضافية)",
        "amenity_type": "hotel"
      },
      {
        "name": "بار الوجبات الخفيفة",
        "amenity_type": "hotel"
      },
      {
        "name": "شوكولاته أو بسكويت (رسوم إضافية)",
        "amenity_type": "hotel"
      },
      {
        "name": "خدمة تنظيف يومية",
        "amenity_type": "hotel"
      },
      {
        "name": "بطاقة الكترونية لفتح الباب",
        "amenity_type": "hotel"
      },
      {
        "name": "جرس الإنذار",
        "amenity_type": "hotel"
      },
      {
        "name": "أجهزة إنذار الدخان",
        "amenity_type": "hotel"
      },
      {
        "name": "كاميرات دوائر تلفزيونية مغلقة في مناطق الاقامة المشتركة",
        "amenity_type": "hotel"
      },
      {
        "name": "كاميرات دوائر تلفزيونية مغلقة خارج مكان الإقامة",
        "amenity_type": "hotel"
      },
      {
        "name": "طفايات حريق",
        "amenity_type": "hotel"
      },
      {
        "name": "شماعات الملابس",
        "amenity_type": "hotel"
      },
      {
        "name": "واي فاي مجاناً",
        "amenity_type": "hotel"
      },
      {
        "name": "حمّام خاص",
        "amenity_type": "hotel"
      },
      {
        "name": "ميني بار",
        "amenity_type": "hotel"
      },
      {
        "name": "مكواة ملابس",
        "amenity_type": "hotel"
      },
      {
        "name": "مكتب",
        "amenity_type": "hotel"
      },
      {
        "name": "قنوات فضائية",
        "amenity_type": "hotel"
      },
      {
        "name": "أرضيات مغطاة بالسجاد",
        "amenity_type": "hotel"
      },
      {
        "name": "يمكن الوصول إلى الطوابق العليا عن طريق المصعد",
        "amenity_type": "hotel"
      },
      {
        "name": "صندوق أمانات",
        "amenity_type": "hotel"
      },
      {
        "name": "تلفزيون بشاشة مسطحة",
        "amenity_type": "hotel"
      },
      {
        "name": "هاتف",
        "amenity_type": "hotel"
      },
      {
        "name": "مرافق كي الملابس",
        "amenity_type": "hotel"
      },
      {
        "name": "حوض استحمام أو دش",
        "amenity_type": "hotel"
      },
      {
        "name": "مجفف شعر",
        "amenity_type": "hotel"
      },
      {
        "name": "رداء حمّام",
        "amenity_type": "hotel"
      },
      {
        "name": "نعال",
        "amenity_type": "hotel"
      },
      {
        "name": "لوازم استحمام مجانية",
        "amenity_type": "hotel"
      },
      {
        "name": "غلاية",
        "amenity_type": "hotel"
      },
      {
        "name": "ثلاجة",
        "amenity_type": "hotel"
      }
    ],
    "meal_title": null,
    "meal_provided": false,
    "providers": [
      {
        "provider": "hudxconnect",
        "vendor": "hudxconnect",
        "amount": 22817.7,
        "hotel_code": "18839_ar-AE",
        "currencyCode": "SAR"
      }
    ],
    "images": {
      "image_url": "//umrah-hotel.s3.amazonaws.com/public/static_image/HotelFrontView9953.jpg",
      "image_webp_url": "https://umrah-hotel.s3.amazonaws.com/public/static_image/hotel/webp/HotelFrontView5260.webp",
      "title": "Hotel Front View",
      "is_default": true,
      "image_type": "Hotel",
      "priority": 1
    },
    "has_special_deal": false,
    "config": {
      "location": "MADEENA"
    }
  },
  {
    "name": "سبال",
    "umrah_hotel_code": "4800000627",
    "g_rating": 0,
    "g_total": "0",
    "description": null,
    "gate_shortest_distance": [],
    "door_shortest_distance": [],
    "hotel_latitude": 39.606223,
    "hotel_longitude": 24.463537,
    "address": null,
    "amount": 8164.75,
    "discount_amount": 8164.75,
    "without_discount": 8164.75,
    "is_discount_applied": false,
    "rating": 2,
    "favorite": false,
    "nabawi_distance": 1200,
    "haram_distance": null,
    "amenities": [],
    "meal_title": null,
    "meal_provided": false,
    "providers": [
      {
        "provider": "hudxconnect",
        "vendor": "hudxconnect",
        "amount": 8164.75,
        "hotel_code": "18384_ar-AE",
        "currencyCode": "SAR"
      }
    ],
    "images": {
      "image_url": "//umrah-hotel.s3.amazonaws.com/public/static_image/HotelFrontView9778.jpg",
      "image_webp_url": "https://umrah-hotel.s3.amazonaws.com/public/static_image/hotel/webp/HotelFrontView5614.webp",
      "title": "Hotel Front View",
      "is_default": true,
      "image_type": "Hotel",
      "priority": 1
    },
    "has_special_deal": true,
    "config": {
      "location": "MADEENA"
    }
  },
  {
    "name": "فندق واحة الشرق الفندقية",
    "umrah_hotel_code": "4800000420",
    "g_rating": 0,
    "g_total": "0",
    "description": "فندق واحة الشرق يبعد عن الحرم النبوي الشريف ما يقارب 1600 متر كما يقع&amp;nbsp; الفندق على شارع رئيسي يسهل التنقل من والى الحرم النبوي الشريف",
    "gate_shortest_distance": [],
    "door_shortest_distance": [],
    "hotel_latitude": 24.457524953464,
    "hotel_longitude": 39.615624765637,
    "address": "عمر بن عبدالعزيز",
    "amount": 2631.37,
    "discount_amount": 2631.37,
    "without_discount": 2631.37,
    "is_discount_applied": false,
    "rating": 1,
    "favorite": false,
    "nabawi_distance": 1200,
    "haram_distance": null,
    "amenities": [
      {
        "name": "تكييف",
        "amenity_type": "hotel"
      },
      {
        "name": "متجر صغير",
        "amenity_type": "hotel"
      },
      {
        "name": "غرف لغير المدخنين",
        "amenity_type": "hotel"
      },
      {
        "name": "مصعد",
        "amenity_type": "hotel"
      },
      {
        "name": "خدمة تنظيف يومية",
        "amenity_type": "hotel"
      },
      {
        "name": "كاميرات دوائر تلفزيونية مغلقة في مناطق الاقامة المشتركة",
        "amenity_type": "hotel"
      },
      {
        "name": "كاميرات دوائر تلفزيونية مغلقة خارج مكان الإقامة",
        "amenity_type": "hotel"
      }
    ],
    "meal_title": null,
    "meal_provided": false,
    "providers": [
      {
        "provider": "hudxconnect",
        "vendor": "hudxconnect",
        "amount": 2631.37,
        "hotel_code": "18390_ar-AE",
        "currencyCode": "SAR"
      }
    ],
    "images": {
      "image_url": "//umrah-hotel.s3.amazonaws.com/public/static_image/tmp/tmpwyca5f_s9117.jpg",
      "image_webp_url": "https://umrah-hotel.s3.amazonaws.com/public/static_image/hotel/webp/tmp/tmpwyca5f_s7525.webp",
      "title": "Wahet Alshareq",
      "is_default": true,
      "image_type": "hotel",
      "priority": 10
    },
    "has_special_deal": false,
    "config": {
      "location": "MADEENA"
    }
  },
  {
    "name": "الإيمان طيبة",
    "umrah_hotel_code": "4700002399",
    "g_rating": 3.8,
    "g_total": "1,702",
    "description": null,
    "gate_shortest_distance": [
      {
        "distance": 450,
        "gate_name": "Umar Bin Khataab Gate",
        "gate_number": 18,
        "gate_latitude": "24.469954000000000",
        "gate_longitude": "39.610130000000000"
      },
      {
        "distance": 480,
        "gate_name": "Badr Gate",
        "gate_number": 19,
        "gate_latitude": "24.469847000000000",
        "gate_longitude": "39.610504000000000"
      },
      {
        "distance": 500,
        "gate_name": "Aqiq gate Gate",
        "gate_number": 11,
        "gate_latitude": "24.468742000000000",
        "gate_longitude": "39.609190000000000"
      },
      {
        "distance": 510,
        "gate_name": "King Saud Gate",
        "gate_number": 9,
        "gate_latitude": "24.468542000000000",
        "gate_longitude": "39.609085000000000"
      },
      {
        "distance": 510,
        "gate_name": "King Fahd Gate",
        "gate_number": 20,
        "gate_latitude": "24.469950000000000",
        "gate_longitude": "39.610870000000000"
      },
      {
        "distance": 530,
        "gate_name": "King Fahd Gate",
        "gate_number": 21,
        "gate_latitude": "24.469920000000000",
        "gate_longitude": "39.611100000000000"
      },
      {
        "distance": 550,
        "gate_name": "King Saud Gate",
        "gate_number": 8,
        "gate_latitude": "24.468210000000000",
        "gate_longitude": "39.609135000000000"
      },
      {
        "distance": 550,
        "gate_name": "King Fahd Gate",
        "gate_number": 22,
        "gate_latitude": "24.469948000000000",
        "gate_longitude": "39.611378000000000"
      },
      {
        "distance": 560,
        "gate_name": "King Saud Gate",
        "gate_number": 7,
        "gate_latitude": "24.468070000000000",
        "gate_longitude": "39.609085000000000"
      },
      {
        "distance": 620,
        "gate_name": "Quba Gate",
        "gate_number": 5,
        "gate_latitude": "24.467772000000000",
        "gate_longitude": "39.609860000000000"
      },
      {
        "distance": 650,
        "gate_name": "Hijrah Gate",
        "gate_number": 4,
        "gate_latitude": "24.467897000000000",
        "gate_longitude": "39.610560000000000"
      },
      {
        "distance": 680,
        "gate_name": "Rahmah Gate",
        "gate_number": 3,
        "gate_latitude": "24.467587000000000",
        "gate_longitude": "39.610634000000000"
      },
      {
        "distance": 690,
        "gate_name": "Salam Gate",
        "gate_number": 1,
        "gate_latitude": "24.467503000000000",
        "gate_longitude": "39.610596000000000"
      },
      {
        "distance": 740,
        "gate_name": "Bilal Gate",
        "gate_number": 38,
        "gate_latitude": "24.467709000000000",
        "gate_longitude": "39.611700000000000"
      },
      {
        "distance": 750,
        "gate_name": "janayiz Gate",
        "gate_number": 42,
        "gate_latitude": "24.467240000000000",
        "gate_longitude": "39.611210000000000"
      },
      {
        "distance": 760,
        "gate_name": "Baqee gate",
        "gate_number": 41,
        "gate_latitude": "24.467480000000000",
        "gate_longitude": "39.611830000000000"
      },
      {
        "distance": 770,
        "gate_name": "Ali Bin Abi Taleb Gate",
        "gate_number": 32,
        "gate_latitude": "24.468733000000000",
        "gate_longitude": "39.613125000000000"
      },
      {
        "distance": 790,
        "gate_name": "King Abdul Aziz Gate",
        "gate_number": 33,
        "gate_latitude": "24.468544000000000",
        "gate_longitude": "39.613182000000000"
      },
      {
        "distance": 790,
        "gate_name": "Makkah Gate",
        "gate_number": 37,
        "gate_latitude": "24.467653000000000",
        "gate_longitude": "39.612354000000000"
      },
      {
        "distance": 810,
        "gate_name": "King Abdul Aziz Gate",
        "gate_number": 34,
        "gate_latitude": "24.468344000000000",
        "gate_longitude": "39.613290000000000"
      },
      {
        "distance": 820,
        "gate_name": "King Abdul Aziz GAte",
        "gate_number": 35,
        "gate_latitude": "24.468110000000000",
        "gate_longitude": "39.613285000000000"
      }
    ],
    "door_shortest_distance": [],
    "hotel_latitude": 24.472681061134,
    "hotel_longitude": 39.606880764248,
    "address": "سعد بن معاذ",
    "amount": 22930.47,
    "discount_amount": 22930.47,
    "without_discount": 22930.47,
    "is_discount_applied": false,
    "rating": 2,
    "favorite": false,
    "nabawi_distance": 1100,
    "haram_distance": null,
    "amenities": [],
    "meal_title": null,
    "meal_provided": false,
    "providers": [
      {
        "provider": "hudxconnect",
        "vendor": "hudxconnect",
        "amount": 22930.47,
        "hotel_code": "18127_ar-AE",
        "currencyCode": "SAR"
      }
    ],
    "images": {
      "image_url": "//umrah-hotel.s3.amazonaws.com/public/static_image/tmp/tmp12p62az36775.jpg",
      "image_webp_url": "https://umrah-hotel.s3.amazonaws.com/public/static_image/hotel/webp/tmp/tmp12p62az35779.webp",
      "title": "ALeman Taebah Hotel",
      "is_default": false,
      "image_type": "hotel",
      "priority": 10
    },
    "has_special_deal": false,
    "config": {
      "location": "MADEENA"
    }
  },
  {
    "name": "فندق سعيده عبيد المولد الفندقية",
    "umrah_hotel_code": "4800000194",
    "g_rating": 0,
    "g_total": "0",
    "description": "سعيده عبيد المولد",
    "gate_shortest_distance": [],
    "door_shortest_distance": [],
    "hotel_latitude": 24.45731986475852,
    "hotel_longitude": 39.61657963204652,
    "address": null,
    "amount": 270.65,
    "discount_amount": 270.65,
    "without_discount": 270.65,
    "is_discount_applied": false,
    "rating": 1,
    "favorite": false,
    "nabawi_distance": 1200,
    "haram_distance": null,
    "amenities": [],
    "meal_title": null,
    "meal_provided": false,
    "providers": [
      {
        "provider": "hudxconnect",
        "vendor": "hudxconnect",
        "amount": 270.65,
        "hotel_code": "19093_ar-AE",
        "currencyCode": "SAR"
      }
    ],
    "images": null,
    "has_special_deal": false,
    "config": {
      "location": "MADEENA"
    }
  },
  {
    "name": "فندق أودست المدينة",
    "umrah_hotel_code": "4800000458",
    "g_rating": 3.6,
    "g_total": "2,069",
    "description": " الأناقة العصرية والراحة وكرم الضيافة في المدينة المنورة \r\n ستجد نفسك في تلك البقعة المقدسة بمجرد خروجك من اللوبي المتألق لفندق اوديست ( احدى فنادق مجموعه المختارة ).\r\nيتواجد الفندق على بعد خطوات من الحرم النبوى الشريف - الجهه الشماليه المركزيه للحرم. \r\n يوفرالفندق لنزلائه القادمين للحج أو العمرة إقامة هادئة بفضل موقعه المتميز ويحيطهم بدفء الحفاوة العربية من قبل طاقم العمل الذي لا يألو جهداً للنزول على راحة النزلاء. \r\n\r\n \r\n\r\n",
    "gate_shortest_distance": [
      {
        "distance": 440,
        "gate_name": "Umar Bin Khataab Gate",
        "gate_number": 18,
        "gate_latitude": "24.469954000000000",
        "gate_longitude": "39.610130000000000"
      },
      {
        "distance": 470,
        "gate_name": "Badr Gate",
        "gate_number": 19,
        "gate_latitude": "24.469847000000000",
        "gate_longitude": "39.610504000000000"
      },
      {
        "distance": 470,
        "gate_name": "King Fahd Gate",
        "gate_number": 20,
        "gate_latitude": "24.469950000000000",
        "gate_longitude": "39.610870000000000"
      },
      {
        "distance": 490,
        "gate_name": "King Fahd Gate",
        "gate_number": 21,
        "gate_latitude": "24.469920000000000",
        "gate_longitude": "39.611100000000000"
      },
      {
        "distance": 500,
        "gate_name": "King Fahd Gate",
        "gate_number": 22,
        "gate_latitude": "24.469948000000000",
        "gate_longitude": "39.611378000000000"
      },
      {
        "distance": 540,
        "gate_name": "Aqiq gate Gate",
        "gate_number": 11,
        "gate_latitude": "24.468742000000000",
        "gate_longitude": "39.609190000000000"
      },
      {
        "distance": 560,
        "gate_name": "King Saud Gate",
        "gate_number": 9,
        "gate_latitude": "24.468542000000000",
        "gate_longitude": "39.609085000000000"
      },
      {
        "distance": 600,
        "gate_name": "King Saud Gate",
        "gate_number": 8,
        "gate_latitude": "24.468210000000000",
        "gate_longitude": "39.609135000000000"
      },
      {
        "distance": 620,
        "gate_name": "King Saud Gate",
        "gate_number": 7,
        "gate_latitude": "24.468070000000000",
        "gate_longitude": "39.609085000000000"
      },
      {
        "distance": 660,
        "gate_name": "Quba Gate",
        "gate_number": 5,
        "gate_latitude": "24.467772000000000",
        "gate_longitude": "39.609860000000000"
      },
      {
        "distance": 670,
        "gate_name": "Hijrah Gate",
        "gate_number": 4,
        "gate_latitude": "24.467897000000000",
        "gate_longitude": "39.610560000000000"
      },
      {
        "distance": 700,
        "gate_name": "Rahmah Gate",
        "gate_number": 3,
        "gate_latitude": "24.467587000000000",
        "gate_longitude": "39.610634000000000"
      },
      {
        "distance": 710,
        "gate_name": "Salam Gate",
        "gate_number": 1,
        "gate_latitude": "24.467503000000000",
        "gate_longitude": "39.610596000000000"
      },
      {
        "distance": 720,
        "gate_name": "Ali Bin Abi Taleb Gate",
        "gate_number": 32,
        "gate_latitude": "24.468733000000000",
        "gate_longitude": "39.613125000000000"
      },
      {
        "distance": 730,
        "gate_name": "Bilal Gate",
        "gate_number": 38,
        "gate_latitude": "24.467709000000000",
        "gate_longitude": "39.611700000000000"
      },
      {
        "distance": 740,
        "gate_name": "King Abdul Aziz Gate",
        "gate_number": 33,
        "gate_latitude": "24.468544000000000",
        "gate_longitude": "39.613182000000000"
      },
      {
        "distance": 760,
        "gate_name": "King Abdul Aziz Gate",
        "gate_number": 34,
        "gate_latitude": "24.468344000000000",
        "gate_longitude": "39.613290000000000"
      },
      {
        "distance": 760,
        "gate_name": "Baqee gate",
        "gate_number": 41,
        "gate_latitude": "24.467480000000000",
        "gate_longitude": "39.611830000000000"
      },
      {
        "distance": 760,
        "gate_name": "janayiz Gate",
        "gate_number": 42,
        "gate_latitude": "24.467240000000000",
        "gate_longitude": "39.611210000000000"
      },
      {
        "distance": 770,
        "gate_name": "Makkah Gate",
        "gate_number": 37,
        "gate_latitude": "24.467653000000000",
        "gate_longitude": "39.612354000000000"
      },
      {
        "distance": 780,
        "gate_name": "King Abdul Aziz GAte",
        "gate_number": 35,
        "gate_latitude": "24.468110000000000",
        "gate_longitude": "39.613285000000000"
      }
    ],
    "door_shortest_distance": [],
    "hotel_latitude": 24.473596521453,
    "hotel_longitude": 39.608425716641,
    "address": "الملك فيصل بن عبدالعزيز",
    "amount": 19178.9,
    "discount_amount": 19178.9,
    "without_discount": 19178.9,
    "is_discount_applied": false,
    "rating": 3,
    "favorite": false,
    "nabawi_distance": 1000,
    "haram_distance": null,
    "amenities": [
      {
        "name": "ملائمة لمستخدمي الكراسي المتحركة",
        "amenity_type": "hotel"
      },
      {
        "name": "واي فاي ",
        "amenity_type": "hotel"
      },
      {
        "name": " منطقة جلوس عامة (لوبي)",
        "amenity_type": "hotel"
      },
      {
        "name": "مرافق لذوي الاحتياجات الخاصة",
        "amenity_type": "hotel"
      },
      {
        "name": "ممنوع التدخين في كل الأماكن",
        "amenity_type": "hotel"
      },
      {
        "name": "تكييف",
        "amenity_type": "hotel"
      },
      {
        "name": "محلات تجارية",
        "amenity_type": "hotel"
      },
      {
        "name": "غرف لغير المدخنين",
        "amenity_type": "hotel"
      },
      {
        "name": "مصعد",
        "amenity_type": "hotel"
      },
      {
        "name": "موقف سيارات",
        "amenity_type": "hotel"
      },
      {
        "name": "زجاجة مياه (رسوم إضافية)",
        "amenity_type": "hotel"
      },
      {
        "name": "مطعم",
        "amenity_type": "hotel"
      },
      {
        "name": "فواكه (رسوم إضافية)",
        "amenity_type": "hotel"
      },
      {
        "name": "خدمة تنظيف يومية",
        "amenity_type": "hotel"
      },
      {
        "name": "مرافق غسيل الملابس (رسوم إضافية)",
        "amenity_type": "hotel"
      },
      {
        "name": "بطاقة الكترونية لفتح الباب",
        "amenity_type": "hotel"
      },
      {
        "name": "جرس الإنذار",
        "amenity_type": "hotel"
      },
      {
        "name": "أجهزة إنذار الدخان",
        "amenity_type": "hotel"
      },
      {
        "name": "كاميرات دوائر تلفزيونية مغلقة في مناطق الاقامة المشتركة",
        "amenity_type": "hotel"
      },
      {
        "name": "طفايات حريق",
        "amenity_type": "hotel"
      }
    ],
    "meal_title": null,
    "meal_provided": false,
    "providers": [
      {
        "provider": "hudxconnect",
        "vendor": "hudxconnect",
        "amount": 19178.9,
        "hotel_code": "18285_ar-AE",
        "currencyCode": "SAR"
      }
    ],
    "images": {
      "image_url": "//umrah-hotel.s3.amazonaws.com/public/static_image/tmp/tmpn7zxbly22681.jpg",
      "image_webp_url": "https://umrah-hotel.s3.amazonaws.com/public/static_image/hotel/webp/tmp/tmpn7zxbly25454.webp",
      "title": "Odest",
      "is_default": true,
      "image_type": "hotel",
      "priority": 1
    },
    "has_special_deal": false,
    "config": {
      "location": "MADEENA"
    }
  },
  {
    "name": "مراج طيبة",
    "umrah_hotel_code": "4700000348",
    "g_rating": 3.6,
    "g_total": "782",
    "description": null,
    "gate_shortest_distance": [
      {
        "distance": 320,
        "gate_name": "Siddique Gate",
        "gate_number": 2,
        "gate_latitude": "24.467587000000000",
        "gate_longitude": "39.616063400000000"
      },
      {
        "distance": 500,
        "gate_name": "King Abdul Aziz GAte",
        "gate_number": 35,
        "gate_latitude": "24.468110000000000",
        "gate_longitude": "39.613285000000000"
      },
      {
        "distance": 520,
        "gate_name": "King Abdul Aziz Gate",
        "gate_number": 34,
        "gate_latitude": "24.468344000000000",
        "gate_longitude": "39.613290000000000"
      },
      {
        "distance": 530,
        "gate_name": "Makkah Gate",
        "gate_number": 37,
        "gate_latitude": "24.467653000000000",
        "gate_longitude": "39.612354000000000"
      },
      {
        "distance": 540,
        "gate_name": "King Abdul Aziz Gate",
        "gate_number": 33,
        "gate_latitude": "24.468544000000000",
        "gate_longitude": "39.613182000000000"
      },
      {
        "distance": 560,
        "gate_name": "Ali Bin Abi Taleb Gate",
        "gate_number": 32,
        "gate_latitude": "24.468733000000000",
        "gate_longitude": "39.613125000000000"
      },
      {
        "distance": 570,
        "gate_name": "Baqee gate",
        "gate_number": 41,
        "gate_latitude": "24.467480000000000",
        "gate_longitude": "39.611830000000000"
      },
      {
        "distance": 590,
        "gate_name": "Bilal Gate",
        "gate_number": 38,
        "gate_latitude": "24.467709000000000",
        "gate_longitude": "39.611700000000000"
      },
      {
        "distance": 610,
        "gate_name": "janayiz Gate",
        "gate_number": 42,
        "gate_latitude": "24.467240000000000",
        "gate_longitude": "39.611210000000000"
      },
      {
        "distance": 680,
        "gate_name": "Salam Gate",
        "gate_number": 1,
        "gate_latitude": "24.467503000000000",
        "gate_longitude": "39.610596000000000"
      },
      {
        "distance": 680,
        "gate_name": "Rahmah Gate",
        "gate_number": 3,
        "gate_latitude": "24.467587000000000",
        "gate_longitude": "39.610634000000000"
      },
      {
        "distance": 700,
        "gate_name": "Hijrah Gate",
        "gate_number": 4,
        "gate_latitude": "24.467897000000000",
        "gate_longitude": "39.610560000000000"
      },
      {
        "distance": 760,
        "gate_name": "Quba Gate",
        "gate_number": 5,
        "gate_latitude": "24.467772000000000",
        "gate_longitude": "39.609860000000000"
      },
      {
        "distance": 780,
        "gate_name": "King Fahd Gate",
        "gate_number": 22,
        "gate_latitude": "24.469948000000000",
        "gate_longitude": "39.611378000000000"
      },
      {
        "distance": 790,
        "gate_name": "King Fahd Gate",
        "gate_number": 21,
        "gate_latitude": "24.469920000000000",
        "gate_longitude": "39.611100000000000"
      },
      {
        "distance": 810,
        "gate_name": "King Fahd Gate",
        "gate_number": 20,
        "gate_latitude": "24.469950000000000",
        "gate_longitude": "39.610870000000000"
      },
      {
        "distance": 830,
        "gate_name": "Badr Gate",
        "gate_number": 19,
        "gate_latitude": "24.469847000000000",
        "gate_longitude": "39.610504000000000"
      },
      {
        "distance": 840,
        "gate_name": "King Saud Gate",
        "gate_number": 7,
        "gate_latitude": "24.468070000000000",
        "gate_longitude": "39.609085000000000"
      },
      {
        "distance": 840,
        "gate_name": "King Saud Gate",
        "gate_number": 8,
        "gate_latitude": "24.468210000000000",
        "gate_longitude": "39.609135000000000"
      },
      {
        "distance": 860,
        "gate_name": "King Saud Gate",
        "gate_number": 9,
        "gate_latitude": "24.468542000000000",
        "gate_longitude": "39.609085000000000"
      },
      {
        "distance": 870,
        "gate_name": "Aqiq gate Gate",
        "gate_number": 11,
        "gate_latitude": "24.468742000000000",
        "gate_longitude": "39.609190000000000"
      },
      {
        "distance": 870,
        "gate_name": "Umar Bin Khataab Gate",
        "gate_number": 18,
        "gate_latitude": "24.469954000000000",
        "gate_longitude": "39.610130000000000"
      }
    ],
    "door_shortest_distance": [],
    "hotel_latitude": 24.464761441185924,
    "hotel_longitude": 39.616547445538345,
    "address": null,
    "amount": 7894.1,
    "discount_amount": 7894.1,
    "without_discount": 7894.1,
    "is_discount_applied": false,
    "rating": 3,
    "favorite": false,
    "nabawi_distance": 400,
    "haram_distance": null,
    "amenities": [],
    "meal_title": null,
    "meal_provided": false,
    "providers": [
      {
        "provider": "hudxconnect",
        "vendor": "hudxconnect",
        "amount": 7894.1,
        "hotel_code": "18664_ar-AE",
        "currencyCode": "SAR"
      }
    ],
    "images": {
      "image_url": "//umrah-hotel.s3.amazonaws.com/public/static_image/HotelFrontView2434.jpg",
      "image_webp_url": "https://umrah-hotel.s3.amazonaws.com/public/static_image/hotel/webp/HotelFrontView5370.webp",
      "title": "Hotel Front View",
      "is_default": true,
      "image_type": "Hotel",
      "priority": 1
    },
    "has_special_deal": false,
    "config": {
      "location": "MADEENA"
    }
  },
  {
    "name": "فندق مركز الصفا الفندقية",
    "umrah_hotel_code": "4700002532",
    "g_rating": 0,
    "g_total": "0",
    "description": null,
    "gate_shortest_distance": [
      {
        "distance": 880,
        "gate_name": "King Fahd Gate",
        "gate_number": 22,
        "gate_latitude": "24.469948000000000",
        "gate_longitude": "39.611378000000000"
      },
      {
        "distance": 890,
        "gate_name": "King Fahd Gate",
        "gate_number": 20,
        "gate_latitude": "24.469950000000000",
        "gate_longitude": "39.610870000000000"
      },
      {
        "distance": 890,
        "gate_name": "King Fahd Gate",
        "gate_number": 21,
        "gate_latitude": "24.469920000000000",
        "gate_longitude": "39.611100000000000"
      },
      {
        "distance": 910,
        "gate_name": "Umar Bin Khataab Gate",
        "gate_number": 18,
        "gate_latitude": "24.469954000000000",
        "gate_longitude": "39.610130000000000"
      },
      {
        "distance": 910,
        "gate_name": "Badr Gate",
        "gate_number": 19,
        "gate_latitude": "24.469847000000000",
        "gate_longitude": "39.610504000000000"
      },
      {
        "distance": 990,
        "gate_name": "Ali Bin Abi Taleb Gate",
        "gate_number": 32,
        "gate_latitude": "24.468733000000000",
        "gate_longitude": "39.613125000000000"
      }
    ],
    "door_shortest_distance": [],
    "hotel_latitude": 24.477690378537957,
    "hotel_longitude": 39.61314104008943,
    "address": null,
    "amount": 6277.69,
    "discount_amount": 6277.69,
    "without_discount": 6277.69,
    "is_discount_applied": false,
    "rating": 1,
    "favorite": false,
    "nabawi_distance": 1100,
    "haram_distance": null,
    "amenities": [],
    "meal_title": null,
    "meal_provided": false,
    "providers": [
      {
        "provider": "hudxconnect",
        "vendor": "hudxconnect",
        "amount": 6277.69,
        "hotel_code": "18454_ar-AE",
        "currencyCode": "SAR"
      }
    ],
    "images": {
      "image_url": "//umrah-hotel.s3.amazonaws.com/public/static_image/HotelFrontview7923.jpg",
      "image_webp_url": "https://umrah-hotel.s3.amazonaws.com/public/static_image/hotel/webp/HotelFrontview5744.webp",
      "title": "Hotel Front view",
      "is_default": true,
      "image_type": "Hotel",
      "priority": 1
    },
    "has_special_deal": false,
    "config": {
      "location": "MADEENA"
    }
  },
  {
    "name": "الزهراء",
    "umrah_hotel_code": "4700001630",
    "g_rating": 0,
    "g_total": "0",
    "description": "يقع فندق الزهراء في وسط المدينة المنورة على بعد امتار من المسجد النبوي، ويوفر غرفاً مكيفة وخدمة الواي فاي المجانية. يقع مكان الإقامة على بعد حوالي 1.6 كم من البازار القديم وعلى بعد 2.1 كم من مول Mazaya. تقع مقبرة البقيع على بعد 2.9 كم من الفندق.\r\n\r\nتحتوي الغرف في الفندق على تلفزيون بشاشة مسطحة. تضم الغرف في فندق الزهراء حمامًا خاصًا، كما توفر إطلالة على المدينة. توفر الوحدات للضيوف ثلاجة.\r\n\r\nيتحدث الموظفون اللغة العربية والإنجليزية، وهم مستعدون للمساعدة على مدار الساعة في مكتب الاستقبال.\r\n\r\nيقع النور مول على بعد 3.8 كم من مكان الإقامة. ويعتبر مطار الأمير محمد بن عبد العزيز الدولي المطار الأقرب لمكان الإقامة حيث يقع على بعد 17 كم منه.\r\n\r\nنحن نتكلم لغتك!",
    "gate_shortest_distance": [
      {
        "distance": 630,
        "gate_name": "King Saud Gate",
        "gate_number": 7,
        "gate_latitude": "24.468070000000000",
        "gate_longitude": "39.609085000000000"
      },
      {
        "distance": 630,
        "gate_name": "King Saud Gate",
        "gate_number": 9,
        "gate_latitude": "24.468542000000000",
        "gate_longitude": "39.609085000000000"
      },
      {
        "distance": 640,
        "gate_name": "King Saud Gate",
        "gate_number": 8,
        "gate_latitude": "24.468210000000000",
        "gate_longitude": "39.609135000000000"
      },
      {
        "distance": 640,
        "gate_name": "Aqiq gate Gate",
        "gate_number": 11,
        "gate_latitude": "24.468742000000000",
        "gate_longitude": "39.609190000000000"
      },
      {
        "distance": 710,
        "gate_name": "Quba Gate",
        "gate_number": 5,
        "gate_latitude": "24.467772000000000",
        "gate_longitude": "39.609860000000000"
      },
      {
        "distance": 740,
        "gate_name": "Umar Bin Khataab Gate",
        "gate_number": 18,
        "gate_latitude": "24.469954000000000",
        "gate_longitude": "39.610130000000000"
      },
      {
        "distance": 780,
        "gate_name": "Hijrah Gate",
        "gate_number": 4,
        "gate_latitude": "24.467897000000000",
        "gate_longitude": "39.610560000000000"
      },
      {
        "distance": 780,
        "gate_name": "Badr Gate",
        "gate_number": 19,
        "gate_latitude": "24.469847000000000",
        "gate_longitude": "39.610504000000000"
      },
      {
        "distance": 790,
        "gate_name": "Salam Gate",
        "gate_number": 1,
        "gate_latitude": "24.467503000000000",
        "gate_longitude": "39.610596000000000"
      },
      {
        "distance": 800,
        "gate_name": "Rahmah Gate",
        "gate_number": 3,
        "gate_latitude": "24.467587000000000",
        "gate_longitude": "39.610634000000000"
      },
      {
        "distance": 820,
        "gate_name": "King Fahd Gate",
        "gate_number": 20,
        "gate_latitude": "24.469950000000000",
        "gate_longitude": "39.610870000000000"
      },
      {
        "distance": 840,
        "gate_name": "King Fahd Gate",
        "gate_number": 21,
        "gate_latitude": "24.469920000000000",
        "gate_longitude": "39.611100000000000"
      },
      {
        "distance": 860,
        "gate_name": "janayiz Gate",
        "gate_number": 42,
        "gate_latitude": "24.467240000000000",
        "gate_longitude": "39.611210000000000"
      },
      {
        "distance": 870,
        "gate_name": "King Fahd Gate",
        "gate_number": 22,
        "gate_latitude": "24.469948000000000",
        "gate_longitude": "39.611378000000000"
      },
      {
        "distance": 900,
        "gate_name": "Bilal Gate",
        "gate_number": 38,
        "gate_latitude": "24.467709000000000",
        "gate_longitude": "39.611700000000000"
      },
      {
        "distance": 920,
        "gate_name": "Baqee gate",
        "gate_number": 41,
        "gate_latitude": "24.467480000000000",
        "gate_longitude": "39.611830000000000"
      },
      {
        "distance": 970,
        "gate_name": "Makkah Gate",
        "gate_number": 37,
        "gate_latitude": "24.467653000000000",
        "gate_longitude": "39.612354000000000"
      }
    ],
    "door_shortest_distance": [],
    "hotel_latitude": 24.468794552803,
    "hotel_longitude": 39.60290036607,
    "address": "سلمان الفارسي",
    "amount": 9969.12,
    "discount_amount": 9969.12,
    "without_discount": 9969.12,
    "is_discount_applied": false,
    "rating": 2,
    "favorite": false,
    "nabawi_distance": 1400,
    "haram_distance": null,
    "amenities": [
      {
        "name": "واي فاي مجاني",
        "amenity_type": "hotel"
      },
      {
        "name": "تكييف",
        "amenity_type": "hotel"
      },
      {
        "name": "صناديق أمانات",
        "amenity_type": "hotel"
      },
      {
        "name": "غرف لغير المدخنين",
        "amenity_type": "hotel"
      },
      {
        "name": "مصعد",
        "amenity_type": "hotel"
      },
      {
        "name": "خدمة تنظيف يومية",
        "amenity_type": "hotel"
      },
      {
        "name": "جرس الإنذار",
        "amenity_type": "hotel"
      },
      {
        "name": "أجهزة إنذار الدخان",
        "amenity_type": "hotel"
      },
      {
        "name": "طفايات حريق",
        "amenity_type": "hotel"
      }
    ],
    "meal_title": null,
    "meal_provided": false,
    "providers": [
      {
        "provider": "hudxconnect",
        "vendor": "hudxconnect",
        "amount": 9969.12,
        "hotel_code": "18099_ar-AE",
        "currencyCode": "SAR"
      }
    ],
    "images": {
      "image_url": "//umrah-hotel.s3.amazonaws.com/public/static_image/tmp/tmpqfqe9fum4087.jpg",
      "image_webp_url": "https://umrah-hotel.s3.amazonaws.com/public/static_image/hotel/webp/tmp/tmpqfqe9fum6153.webp",
      "title": "Alzahra Hotel",
      "is_default": true,
      "image_type": "hotel",
      "priority": 10
    },
    "has_special_deal": false,
    "config": {
      "location": "MADEENA"
    }
  },
  {
    "name": "طابة السلام",
    "umrah_hotel_code": "4700003115",
    "g_rating": 3.7,
    "g_total": "2,099",
    "description": "يقع سويس إنترناشونال طابة السلام في موقع مثالي في وسط المدينة بالمنطقه المركزيه الغربيه في المدينة المنورة ،على بعد خطوات من ساحة المسجد النبوى الشريف كما يبعد ثلاث دقائق مشيا عى الأقدام من باب رقم 11 (مدخل النساء) ، تشمل المرافق المتوفرة في مكان الإقامة هذا مطعمًا ومكتب استقبال وخدمة غرف يعمل على مدار الساعة ، بالإضافة إلى خدمة الواي فاي مجانًا في جميع أنحاء مكان الإقامة.\r\nتقع مقبرة البقيع على بعد 3 كم من مكان الإقامة، في حين يقع مسجد قباء على بعد 3.8 كم من مكان الإقامة. يعتبر مطار الأمير محمد بن عبد العزيز الدولي المطار الأقرب لمكان الإقامة ، حيث يقع على بعد 15 كم\r\nيوفر مكان الإقامه يوميا رحله مجانيه للأماكن التاريخيه بالمدينه المنوره\r\n",
    "gate_shortest_distance": [
      {
        "distance": 550,
        "gate_name": "King Saud Gate",
        "gate_number": 9,
        "gate_latitude": "24.468542000000000",
        "gate_longitude": "39.609085000000000"
      },
      {
        "distance": 560,
        "gate_name": "King Saud Gate",
        "gate_number": 7,
        "gate_latitude": "24.468070000000000",
        "gate_longitude": "39.609085000000000"
      },
      {
        "distance": 560,
        "gate_name": "King Saud Gate",
        "gate_number": 8,
        "gate_latitude": "24.468210000000000",
        "gate_longitude": "39.609135000000000"
      },
      {
        "distance": 560,
        "gate_name": "Aqiq gate Gate",
        "gate_number": 11,
        "gate_latitude": "24.468742000000000",
        "gate_longitude": "39.609190000000000"
      },
      {
        "distance": 640,
        "gate_name": "Quba Gate",
        "gate_number": 5,
        "gate_latitude": "24.467772000000000",
        "gate_longitude": "39.609860000000000"
      },
      {
        "distance": 670,
        "gate_name": "Umar Bin Khataab Gate",
        "gate_number": 18,
        "gate_latitude": "24.469954000000000",
        "gate_longitude": "39.610130000000000"
      },
      {
        "distance": 700,
        "gate_name": "Badr Gate",
        "gate_number": 19,
        "gate_latitude": "24.469847000000000",
        "gate_longitude": "39.610504000000000"
      },
      {
        "distance": 710,
        "gate_name": "Hijrah Gate",
        "gate_number": 4,
        "gate_latitude": "24.467897000000000",
        "gate_longitude": "39.610560000000000"
      },
      {
        "distance": 720,
        "gate_name": "Salam Gate",
        "gate_number": 1,
        "gate_latitude": "24.467503000000000",
        "gate_longitude": "39.610596000000000"
      },
      {
        "distance": 720,
        "gate_name": "Rahmah Gate",
        "gate_number": 3,
        "gate_latitude": "24.467587000000000",
        "gate_longitude": "39.610634000000000"
      },
      {
        "distance": 740,
        "gate_name": "King Fahd Gate",
        "gate_number": 20,
        "gate_latitude": "24.469950000000000",
        "gate_longitude": "39.610870000000000"
      },
      {
        "distance": 760,
        "gate_name": "King Fahd Gate",
        "gate_number": 21,
        "gate_latitude": "24.469920000000000",
        "gate_longitude": "39.611100000000000"
      },
      {
        "distance": 790,
        "gate_name": "King Fahd Gate",
        "gate_number": 22,
        "gate_latitude": "24.469948000000000",
        "gate_longitude": "39.611378000000000"
      },
      {
        "distance": 790,
        "gate_name": "janayiz Gate",
        "gate_number": 42,
        "gate_latitude": "24.467240000000000",
        "gate_longitude": "39.611210000000000"
      },
      {
        "distance": 820,
        "gate_name": "Bilal Gate",
        "gate_number": 38,
        "gate_latitude": "24.467709000000000",
        "gate_longitude": "39.611700000000000"
      },
      {
        "distance": 840,
        "gate_name": "Baqee gate",
        "gate_number": 41,
        "gate_latitude": "24.467480000000000",
        "gate_longitude": "39.611830000000000"
      },
      {
        "distance": 890,
        "gate_name": "Makkah Gate",
        "gate_number": 37,
        "gate_latitude": "24.467653000000000",
        "gate_longitude": "39.612354000000000"
      },
      {
        "distance": 960,
        "gate_name": "Ali Bin Abi Taleb Gate",
        "gate_number": 32,
        "gate_latitude": "24.468733000000000",
        "gate_longitude": "39.613125000000000"
      },
      {
        "distance": 960,
        "gate_name": "King Abdul Aziz Gate",
        "gate_number": 33,
        "gate_latitude": "24.468544000000000",
        "gate_longitude": "39.613182000000000"
      },
      {
        "distance": 980,
        "gate_name": "King Abdul Aziz Gate",
        "gate_number": 34,
        "gate_latitude": "24.468344000000000",
        "gate_longitude": "39.613290000000000"
      },
      {
        "distance": 980,
        "gate_name": "King Abdul Aziz GAte",
        "gate_number": 35,
        "gate_latitude": "24.468110000000000",
        "gate_longitude": "39.613285000000000"
      }
    ],
    "door_shortest_distance": [],
    "hotel_latitude": 24.468892205235875,
    "hotel_longitude": 39.60367284226686,
    "address": "الزبير بن العوام",
    "amount": 75565.3,
    "discount_amount": 75565.3,
    "without_discount": 75565.3,
    "is_discount_applied": false,
    "rating": 3,
    "favorite": false,
    "nabawi_distance": 1300,
    "haram_distance": null,
    "amenities": [
      {
        "name": "ملائمة لمستخدمي الكراسي المتحركة",
        "amenity_type": "hotel"
      },
      {
        "name": "واي فاي ",
        "amenity_type": "hotel"
      },
      {
        "name": " منطقة جلوس عامة (لوبي)",
        "amenity_type": "hotel"
      },
      {
        "name": "مرافق لذوي الاحتياجات الخاصة",
        "amenity_type": "hotel"
      },
      {
        "name": "ممنوع التدخين في كل الأماكن",
        "amenity_type": "hotel"
      },
      {
        "name": "تكييف",
        "amenity_type": "hotel"
      },
      {
        "name": "صناديق أمانات",
        "amenity_type": "hotel"
      },
      {
        "name": "مصعد",
        "amenity_type": "hotel"
      },
      {
        "name": "زجاجة مياه (رسوم إضافية)",
        "amenity_type": "hotel"
      },
      {
        "name": "مطعم",
        "amenity_type": "hotel"
      },
      {
        "name": "فواكه (رسوم إضافية)",
        "amenity_type": "hotel"
      },
      {
        "name": "شوكولاته أو بسكويت (رسوم إضافية)",
        "amenity_type": "hotel"
      },
      {
        "name": "خدمة تنظيف يومية",
        "amenity_type": "hotel"
      },
      {
        "name": "مرافق غسيل الملابس (رسوم إضافية)",
        "amenity_type": "hotel"
      },
      {
        "name": "جرس الإنذار",
        "amenity_type": "hotel"
      },
      {
        "name": "أجهزة إنذار الدخان",
        "amenity_type": "hotel"
      },
      {
        "name": "كاميرات دوائر تلفزيونية مغلقة في مناطق الاقامة المشتركة",
        "amenity_type": "hotel"
      },
      {
        "name": "كاميرات دوائر تلفزيونية مغلقة خارج مكان الإقامة",
        "amenity_type": "hotel"
      },
      {
        "name": "طفايات حريق",
        "amenity_type": "hotel"
      },
      {
        "name": "خدمة غسيل الملابس",
        "amenity_type": "hotel"
      }
    ],
    "meal_title": null,
    "meal_provided": false,
    "providers": [
      {
        "provider": "hudxconnect",
        "vendor": "hudxconnect",
        "amount": 75565.3,
        "hotel_code": "18901_ar-AE",
        "currencyCode": "SAR"
      }
    ],
    "images": {
      "image_url": "//umrah-hotel.s3.amazonaws.com/public/static_image/tmp/tmpube9qmxl4872.jpg",
      "image_webp_url": "https://umrah-hotel.s3.amazonaws.com/public/static_image/hotel/webp/tmp/tmpube9qmxl2218.webp",
      "title": "Primary property photo",
      "is_default": true,
      "image_type": "hotel",
      "priority": 1
    },
    "has_special_deal": false,
    "config": {
      "location": "MADEENA"
    }
  },
  {
    "name": "فندق أركان المنار الفندقية",
    "umrah_hotel_code": "4800000219",
    "g_rating": 0,
    "g_total": "0",
    "description": null,
    "gate_shortest_distance": [
      {
        "distance": 430,
        "gate_name": "Umar Bin Khataab Gate",
        "gate_number": 18,
        "gate_latitude": "24.469954000000000",
        "gate_longitude": "39.610130000000000"
      },
      {
        "distance": 460,
        "gate_name": "Badr Gate",
        "gate_number": 19,
        "gate_latitude": "24.469847000000000",
        "gate_longitude": "39.610504000000000"
      },
      {
        "distance": 480,
        "gate_name": "Aqiq gate Gate",
        "gate_number": 11,
        "gate_latitude": "24.468742000000000",
        "gate_longitude": "39.609190000000000"
      },
      {
        "distance": 490,
        "gate_name": "King Fahd Gate",
        "gate_number": 20,
        "gate_latitude": "24.469950000000000",
        "gate_longitude": "39.610870000000000"
      },
      {
        "distance": 500,
        "gate_name": "King Saud Gate",
        "gate_number": 9,
        "gate_latitude": "24.468542000000000",
        "gate_longitude": "39.609085000000000"
      },
      {
        "distance": 510,
        "gate_name": "King Fahd Gate",
        "gate_number": 21,
        "gate_latitude": "24.469920000000000",
        "gate_longitude": "39.611100000000000"
      },
      {
        "distance": 530,
        "gate_name": "King Saud Gate",
        "gate_number": 8,
        "gate_latitude": "24.468210000000000",
        "gate_longitude": "39.609135000000000"
      },
      {
        "distance": 530,
        "gate_name": "King Fahd Gate",
        "gate_number": 22,
        "gate_latitude": "24.469948000000000",
        "gate_longitude": "39.611378000000000"
      },
      {
        "distance": 540,
        "gate_name": "King Saud Gate",
        "gate_number": 7,
        "gate_latitude": "24.468070000000000",
        "gate_longitude": "39.609085000000000"
      },
      {
        "distance": 610,
        "gate_name": "Quba Gate",
        "gate_number": 5,
        "gate_latitude": "24.467772000000000",
        "gate_longitude": "39.609860000000000"
      },
      {
        "distance": 630,
        "gate_name": "Hijrah Gate",
        "gate_number": 4,
        "gate_latitude": "24.467897000000000",
        "gate_longitude": "39.610560000000000"
      },
      {
        "distance": 660,
        "gate_name": "Rahmah Gate",
        "gate_number": 3,
        "gate_latitude": "24.467587000000000",
        "gate_longitude": "39.610634000000000"
      },
      {
        "distance": 670,
        "gate_name": "Salam Gate",
        "gate_number": 1,
        "gate_latitude": "24.467503000000000",
        "gate_longitude": "39.610596000000000"
      },
      {
        "distance": 720,
        "gate_name": "Bilal Gate",
        "gate_number": 38,
        "gate_latitude": "24.467709000000000",
        "gate_longitude": "39.611700000000000"
      },
      {
        "distance": 730,
        "gate_name": "janayiz Gate",
        "gate_number": 42,
        "gate_latitude": "24.467240000000000",
        "gate_longitude": "39.611210000000000"
      },
      {
        "distance": 750,
        "gate_name": "Ali Bin Abi Taleb Gate",
        "gate_number": 32,
        "gate_latitude": "24.468733000000000",
        "gate_longitude": "39.613125000000000"
      },
      {
        "distance": 750,
        "gate_name": "Baqee gate",
        "gate_number": 41,
        "gate_latitude": "24.467480000000000",
        "gate_longitude": "39.611830000000000"
      },
      {
        "distance": 770,
        "gate_name": "King Abdul Aziz Gate",
        "gate_number": 33,
        "gate_latitude": "24.468544000000000",
        "gate_longitude": "39.613182000000000"
      },
      {
        "distance": 770,
        "gate_name": "Makkah Gate",
        "gate_number": 37,
        "gate_latitude": "24.467653000000000",
        "gate_longitude": "39.612354000000000"
      },
      {
        "distance": 790,
        "gate_name": "King Abdul Aziz Gate",
        "gate_number": 34,
        "gate_latitude": "24.468344000000000",
        "gate_longitude": "39.613290000000000"
      },
      {
        "distance": 800,
        "gate_name": "King Abdul Aziz GAte",
        "gate_number": 35,
        "gate_latitude": "24.468110000000000",
        "gate_longitude": "39.613285000000000"
      }
    ],
    "door_shortest_distance": [],
    "hotel_latitude": 24.472627353922,
    "hotel_longitude": 39.607073883297,
    "address": "سعد بن معاذ",
    "amount": 7856.51,
    "discount_amount": 7856.51,
    "without_discount": 7856.51,
    "is_discount_applied": false,
    "rating": 1,
    "favorite": false,
    "nabawi_distance": 1000,
    "haram_distance": null,
    "amenities": [],
    "meal_title": null,
    "meal_provided": false,
    "providers": [
      {
        "provider": "hudxconnect",
        "vendor": "hudxconnect",
        "amount": 7856.51,
        "hotel_code": "18126_ar-AE",
        "currencyCode": "SAR"
      }
    ],
    "images": {
      "image_url": "//umrah-hotel.s3.amazonaws.com/public/static_image/tmp/tmpa75hvh7i6995.jpg",
      "image_webp_url": "https://umrah-hotel.s3.amazonaws.com/public/static_image/hotel/webp/tmp/tmpa75hvh7i8504.webp",
      "title": "Al-Eiman Al-Manar",
      "is_default": true,
      "image_type": "hotel",
      "priority": 10
    },
    "has_special_deal": false,
    "config": {
      "location": "MADEENA"
    }
  },
  {
    "name": "تاج ورد",
    "umrah_hotel_code": "4800000903",
    "g_rating": 0,
    "g_total": "0",
    "description": "االمنطقة المركزية الجنوبية \r\nجهة القبلة بجوار مطعم البيك ",
    "gate_shortest_distance": [],
    "door_shortest_distance": [],
    "hotel_latitude": null,
    "hotel_longitude": null,
    "address": null,
    "amount": 4022.23,
    "discount_amount": 4022.23,
    "without_discount": 4022.23,
    "is_discount_applied": false,
    "rating": 1,
    "favorite": false,
    "nabawi_distance": 5043300,
    "haram_distance": null,
    "amenities": [],
    "meal_title": null,
    "meal_provided": false,
    "providers": [
      {
        "provider": "hudxconnect",
        "vendor": "hudxconnect",
        "amount": 4022.23,
        "hotel_code": "18931_ar-AE",
        "currencyCode": "SAR"
      }
    ],
    "images": null,
    "has_special_deal": false,
    "config": {
      "location": "MADEENA"
    }
  },
  {
    "name": "روابي الزهراء",
    "umrah_hotel_code": "4700000334",
    "g_rating": 3.8,
    "g_total": "862",
    "description": "وفر فندق Rawabi Al Zahrah غرفاً مع شرفات خاصة في وسط المدينة المنورة. تشمل المرافق المتوفرة في مكان الإقامة هذا مكتب استقبال يعمل على مدار 24 ساعة وخدمة الغرف، بالإضافة إلى خدمة الواي فاي المجانية في جميع أنحاء مكان الإقامة. ويمكن ترتيب مواقف خاصة للسيارات مقابل تكلفة إضافية.\r\n\r\nتحتوي جميع الوحدات على تكييف وتلفزيون بشاشة مسطحة مع قنوات فضائية وثلاجة وغلاية وبيديه ومجفف شعر وخزانة ملابس. تحتوي الغرف في الفندق على حمام خاص مجهز بدش ولوازم استحمام مجانية، كما توفر للضيوف إطلالة على المدينة.\r\n\r\nيقع المسجد النبوي على بعد 400م من Rawabi Al Zahrah Hotel، في حين يقع البازار القديم على بعد 2 كم، ويعتبر مطار الأمير محمد بن عبد العزيز الدولي المطار الأقرب لمكان الإقامة حيث يقع على بعد 17 كم منه.\r\n\r\nهذه المنطقة المفضلة من المدينة المنورة لدى ضيوفنا بناءً على التقييمات المستقلة.\r\n\r\nنحن نتكلم لغتك!",
    "gate_shortest_distance": [
      {
        "distance": 520,
        "gate_name": "King Saud Gate",
        "gate_number": 7,
        "gate_latitude": "24.468070000000000",
        "gate_longitude": "39.609085000000000"
      },
      {
        "distance": 530,
        "gate_name": "King Saud Gate",
        "gate_number": 8,
        "gate_latitude": "24.468210000000000",
        "gate_longitude": "39.609135000000000"
      },
      {
        "distance": 530,
        "gate_name": "King Saud Gate",
        "gate_number": 9,
        "gate_latitude": "24.468542000000000",
        "gate_longitude": "39.609085000000000"
      },
      {
        "distance": 550,
        "gate_name": "Aqiq gate Gate",
        "gate_number": 11,
        "gate_latitude": "24.468742000000000",
        "gate_longitude": "39.609190000000000"
      },
      {
        "distance": 590,
        "gate_name": "Quba Gate",
        "gate_number": 5,
        "gate_latitude": "24.467772000000000",
        "gate_longitude": "39.609860000000000"
      },
      {
        "distance": 670,
        "gate_name": "Salam Gate",
        "gate_number": 1,
        "gate_latitude": "24.467503000000000",
        "gate_longitude": "39.610596000000000"
      },
      {
        "distance": 670,
        "gate_name": "Rahmah Gate",
        "gate_number": 3,
        "gate_latitude": "24.467587000000000",
        "gate_longitude": "39.610634000000000"
      },
      {
        "distance": 670,
        "gate_name": "Hijrah Gate",
        "gate_number": 4,
        "gate_latitude": "24.467897000000000",
        "gate_longitude": "39.610560000000000"
      },
      {
        "distance": 680,
        "gate_name": "Umar Bin Khataab Gate",
        "gate_number": 18,
        "gate_latitude": "24.469954000000000",
        "gate_longitude": "39.610130000000000"
      },
      {
        "distance": 710,
        "gate_name": "Badr Gate",
        "gate_number": 19,
        "gate_latitude": "24.469847000000000",
        "gate_longitude": "39.610504000000000"
      },
      {
        "distance": 730,
        "gate_name": "janayiz Gate",
        "gate_number": 42,
        "gate_latitude": "24.467240000000000",
        "gate_longitude": "39.611210000000000"
      },
      {
        "distance": 750,
        "gate_name": "King Fahd Gate",
        "gate_number": 20,
        "gate_latitude": "24.469950000000000",
        "gate_longitude": "39.610870000000000"
      },
      {
        "distance": 770,
        "gate_name": "King Fahd Gate",
        "gate_number": 21,
        "gate_latitude": "24.469920000000000",
        "gate_longitude": "39.611100000000000"
      },
      {
        "distance": 780,
        "gate_name": "Bilal Gate",
        "gate_number": 38,
        "gate_latitude": "24.467709000000000",
        "gate_longitude": "39.611700000000000"
      },
      {
        "distance": 790,
        "gate_name": "Baqee gate",
        "gate_number": 41,
        "gate_latitude": "24.467480000000000",
        "gate_longitude": "39.611830000000000"
      },
      {
        "distance": 800,
        "gate_name": "King Fahd Gate",
        "gate_number": 22,
        "gate_latitude": "24.469948000000000",
        "gate_longitude": "39.611378000000000"
      },
      {
        "distance": 840,
        "gate_name": "Makkah Gate",
        "gate_number": 37,
        "gate_latitude": "24.467653000000000",
        "gate_longitude": "39.612354000000000"
      },
      {
        "distance": 940,
        "gate_name": "Ali Bin Abi Taleb Gate",
        "gate_number": 32,
        "gate_latitude": "24.468733000000000",
        "gate_longitude": "39.613125000000000"
      },
      {
        "distance": 940,
        "gate_name": "King Abdul Aziz Gate",
        "gate_number": 33,
        "gate_latitude": "24.468544000000000",
        "gate_longitude": "39.613182000000000"
      },
      {
        "distance": 940,
        "gate_name": "King Abdul Aziz GAte",
        "gate_number": 35,
        "gate_latitude": "24.468110000000000",
        "gate_longitude": "39.613285000000000"
      },
      {
        "distance": 950,
        "gate_name": "King Abdul Aziz Gate",
        "gate_number": 34,
        "gate_latitude": "24.468344000000000",
        "gate_longitude": "39.613290000000000"
      }
    ],
    "door_shortest_distance": [],
    "hotel_latitude": 24.467290695778,
    "hotel_longitude": 39.604032258274,
    "address": "طريق السلام",
    "amount": 9969.12,
    "discount_amount": 9969.12,
    "without_discount": 9969.12,
    "is_discount_applied": false,
    "rating": 2,
    "favorite": false,
    "nabawi_distance": 1300,
    "haram_distance": null,
    "amenities": [
      {
        "name": "واي فاي مجاني",
        "amenity_type": "hotel"
      },
      {
        "name": "تكييف",
        "amenity_type": "hotel"
      },
      {
        "name": "صناديق أمانات",
        "amenity_type": "hotel"
      },
      {
        "name": "مصعد",
        "amenity_type": "hotel"
      },
      {
        "name": "موقف سيارات",
        "amenity_type": "hotel"
      },
      {
        "name": "جرس الإنذار",
        "amenity_type": "hotel"
      }
    ],
    "meal_title": null,
    "meal_provided": false,
    "providers": [
      {
        "provider": "hudxconnect",
        "vendor": "hudxconnect",
        "amount": 9969.12,
        "hotel_code": "18173_ar-AE",
        "currencyCode": "SAR"
      }
    ],
    "images": {
      "image_url": "//umrah-hotel.s3.amazonaws.com/public/static_image/HotelFrontView3407.jpg",
      "image_webp_url": "https://umrah-hotel.s3.amazonaws.com/public/static_image/hotel/webp/HotelFrontView4757.webp",
      "title": "Hotel Front View",
      "is_default": true,
      "image_type": "Hotel",
      "priority": 1
    },
    "has_special_deal": false,
    "config": {
      "location": "MADEENA"
    }
  },
  {
    "name": "فندق مرجان المدينة الذهبي للشقق الفندقية",
    "umrah_hotel_code": "4800000883",
    "g_rating": 0,
    "g_total": "0",
    "description": "فندق مرجان المدينة الذهبي",
    "gate_shortest_distance": [],
    "door_shortest_distance": [],
    "hotel_latitude": null,
    "hotel_longitude": null,
    "address": null,
    "amount": 30373.48,
    "discount_amount": 30373.48,
    "without_discount": 30373.48,
    "is_discount_applied": false,
    "rating": 1,
    "favorite": false,
    "nabawi_distance": 5043300,
    "haram_distance": null,
    "amenities": [],
    "meal_title": null,
    "meal_provided": false,
    "providers": [
      {
        "provider": "hudxconnect",
        "vendor": "hudxconnect",
        "amount": 30373.48,
        "hotel_code": "18971_ar-AE",
        "currencyCode": "SAR"
      }
    ],
    "images": {
      "image_url": "//umrah-hotel.s3.amazonaws.com/public/static_image/HotelFrontView4404.jpg",
      "image_webp_url": "https://umrah-hotel.s3.amazonaws.com/public/static_image/hotel/webp/HotelFrontView2998.webp",
      "title": "Hotel Front View",
      "is_default": true,
      "image_type": "Hotel",
      "priority": 1
    },
    "has_special_deal": false,
    "config": {
      "location": "MADEENA"
    }
  },
  {
    "name": "ديار طابه",
    "umrah_hotel_code": "4800000751",
    "g_rating": 0,
    "g_total": "0",
    "description": "يقع الفندق  في المدينة المنورة المنطقة المركزية الغربية على يبعد عن المسجد النبوي الشريف مسافة 330 متر ويحتوي الفندق على 110 غرفة مؤثثة بأرقي الأثاث والديكورات العصرية \r\nمما يضيف إحساس بالراحة والرفاهية للنزلاء الكرام والفندق حاصل على فئة ( نجمة ) ، كما تتميز جميع غرف الفندق بالمساحات الرحبة ويحتوي الفندق على  كافي لتقديم أشهر المشروبات الساخنة وغيرها .",
    "gate_shortest_distance": [
      {
        "distance": 430,
        "gate_name": "King Saud Gate",
        "gate_number": 7,
        "gate_latitude": "24.468070000000000",
        "gate_longitude": "39.609085000000000"
      },
      {
        "distance": 440,
        "gate_name": "King Saud Gate",
        "gate_number": 8,
        "gate_latitude": "24.468210000000000",
        "gate_longitude": "39.609135000000000"
      },
      {
        "distance": 450,
        "gate_name": "King Saud Gate",
        "gate_number": 9,
        "gate_latitude": "24.468542000000000",
        "gate_longitude": "39.609085000000000"
      },
      {
        "distance": 470,
        "gate_name": "Aqiq gate Gate",
        "gate_number": 11,
        "gate_latitude": "24.468742000000000",
        "gate_longitude": "39.609190000000000"
      },
      {
        "distance": 490,
        "gate_name": "Quba Gate",
        "gate_number": 5,
        "gate_latitude": "24.467772000000000",
        "gate_longitude": "39.609860000000000"
      },
      {
        "distance": 560,
        "gate_name": "Salam Gate",
        "gate_number": 1,
        "gate_latitude": "24.467503000000000",
        "gate_longitude": "39.610596000000000"
      },
      {
        "distance": 560,
        "gate_name": "Rahmah Gate",
        "gate_number": 3,
        "gate_latitude": "24.467587000000000",
        "gate_longitude": "39.610634000000000"
      },
      {
        "distance": 560,
        "gate_name": "Hijrah Gate",
        "gate_number": 4,
        "gate_latitude": "24.467897000000000",
        "gate_longitude": "39.610560000000000"
      },
      {
        "distance": 610,
        "gate_name": "janayiz Gate",
        "gate_number": 42,
        "gate_latitude": "24.467240000000000",
        "gate_longitude": "39.611210000000000"
      },
      {
        "distance": 630,
        "gate_name": "Umar Bin Khataab Gate",
        "gate_number": 18,
        "gate_latitude": "24.469954000000000",
        "gate_longitude": "39.610130000000000"
      },
      {
        "distance": 650,
        "gate_name": "Badr Gate",
        "gate_number": 19,
        "gate_latitude": "24.469847000000000",
        "gate_longitude": "39.610504000000000"
      },
      {
        "distance": 670,
        "gate_name": "Bilal Gate",
        "gate_number": 38,
        "gate_latitude": "24.467709000000000",
        "gate_longitude": "39.611700000000000"
      },
      {
        "distance": 680,
        "gate_name": "Baqee gate",
        "gate_number": 41,
        "gate_latitude": "24.467480000000000",
        "gate_longitude": "39.611830000000000"
      },
      {
        "distance": 690,
        "gate_name": "King Fahd Gate",
        "gate_number": 20,
        "gate_latitude": "24.469950000000000",
        "gate_longitude": "39.610870000000000"
      },
      {
        "distance": 710,
        "gate_name": "King Fahd Gate",
        "gate_number": 21,
        "gate_latitude": "24.469920000000000",
        "gate_longitude": "39.611100000000000"
      },
      {
        "distance": 730,
        "gate_name": "King Fahd Gate",
        "gate_number": 22,
        "gate_latitude": "24.469948000000000",
        "gate_longitude": "39.611378000000000"
      },
      {
        "distance": 740,
        "gate_name": "Makkah Gate",
        "gate_number": 37,
        "gate_latitude": "24.467653000000000",
        "gate_longitude": "39.612354000000000"
      },
      {
        "distance": 840,
        "gate_name": "Ali Bin Abi Taleb Gate",
        "gate_number": 32,
        "gate_latitude": "24.468733000000000",
        "gate_longitude": "39.613125000000000"
      },
      {
        "distance": 840,
        "gate_name": "King Abdul Aziz Gate",
        "gate_number": 33,
        "gate_latitude": "24.468544000000000",
        "gate_longitude": "39.613182000000000"
      },
      {
        "distance": 840,
        "gate_name": "King Abdul Aziz Gate",
        "gate_number": 34,
        "gate_latitude": "24.468344000000000",
        "gate_longitude": "39.613290000000000"
      },
      {
        "distance": 840,
        "gate_name": "King Abdul Aziz GAte",
        "gate_number": 35,
        "gate_latitude": "24.468110000000000",
        "gate_longitude": "39.613285000000000"
      }
    ],
    "door_shortest_distance": [],
    "hotel_latitude": 24.466538760530693,
    "hotel_longitude": 39.60520706582338,
    "address": null,
    "amount": 15412.28,
    "discount_amount": 15412.28,
    "without_discount": 15412.28,
    "is_discount_applied": false,
    "rating": 2,
    "favorite": false,
    "nabawi_distance": 1200,
    "haram_distance": null,
    "amenities": [],
    "meal_title": null,
    "meal_provided": false,
    "providers": [
      {
        "provider": "hudxconnect",
        "vendor": "hudxconnect",
        "amount": 15412.28,
        "hotel_code": "18468_ar-AE",
        "currencyCode": "SAR"
      }
    ],
    "images": {
      "image_url": "//umrah-hotel.s3.amazonaws.com/public/static_image/HotelFrontView8627.jpg",
      "image_webp_url": "https://umrah-hotel.s3.amazonaws.com/public/static_image/hotel/webp/HotelFrontView1433.webp",
      "title": "Hotel Front View",
      "is_default": true,
      "image_type": "Hotel",
      "priority": 1
    },
    "has_special_deal": false,
    "config": {
      "location": "MADEENA"
    }
  },
  {
    "name": "محمدية الزهراء",
    "umrah_hotel_code": "4700000351",
    "g_rating": 3.6,
    "g_total": "1,286",
    "description": "يتميز فندق المحمدية الزهراء بأماكن إقامة مع شرفات خاصة في وسط المدينة المنورة. تشمل المرافق المتوفرة في مكان الإقامة هذا مكتب استقبال يعمل على مدار 24 ساعة وخدمة الغرف، بالإضافة إلى خدمة الواي فاي المجانية في جميع أنحاء مكان الإقامة. يحتوي الفندق على غرف عائلية.\r\n\r\nتحتوي الغرف على تكييف وتلفزيون بشاشة مسطحة مع قنوات فضائية وثلاجة وغلاية ودش ومجفف شعر وخزانة ملابس. تحتوي الغرف في الفندق على حمام خاص مع حوض استحمام ولوازم استحمام مجانية، وتُطل على المدينة،\r\n\r\nيقع المسجد النبوي على بعد 5 كم من فندق المحمدية الزهراء، في حين يقع البازار القديم على بعد 2.5 كم من مكان الإقامة. ويعتبر مطار الأمير محمد بن عبد العزيز الدولي المطار الأقرب لمكان الإقامة حيث يقع على بعد 17 كم منه.\r\n\r\nهذه المنطقة المفضلة من المدينة المنورة لدى ضيوفنا بناءً على التقييمات المستقلة.\r\n\r\nنحن نتكلم لغتك!",
    "gate_shortest_distance": [
      {
        "distance": 600,
        "gate_name": "King Saud Gate",
        "gate_number": 7,
        "gate_latitude": "24.468070000000000",
        "gate_longitude": "39.609085000000000"
      },
      {
        "distance": 610,
        "gate_name": "King Saud Gate",
        "gate_number": 8,
        "gate_latitude": "24.468210000000000",
        "gate_longitude": "39.609135000000000"
      },
      {
        "distance": 620,
        "gate_name": "Quba Gate",
        "gate_number": 5,
        "gate_latitude": "24.467772000000000",
        "gate_longitude": "39.609860000000000"
      },
      {
        "distance": 640,
        "gate_name": "King Saud Gate",
        "gate_number": 9,
        "gate_latitude": "24.468542000000000",
        "gate_longitude": "39.609085000000000"
      },
      {
        "distance": 660,
        "gate_name": "Salam Gate",
        "gate_number": 1,
        "gate_latitude": "24.467503000000000",
        "gate_longitude": "39.610596000000000"
      },
      {
        "distance": 660,
        "gate_name": "Aqiq gate Gate",
        "gate_number": 11,
        "gate_latitude": "24.468742000000000",
        "gate_longitude": "39.609190000000000"
      },
      {
        "distance": 670,
        "gate_name": "Rahmah Gate",
        "gate_number": 3,
        "gate_latitude": "24.467587000000000",
        "gate_longitude": "39.610634000000000"
      },
      {
        "distance": 680,
        "gate_name": "Hijrah Gate",
        "gate_number": 4,
        "gate_latitude": "24.467897000000000",
        "gate_longitude": "39.610560000000000"
      },
      {
        "distance": 690,
        "gate_name": "janayiz Gate",
        "gate_number": 42,
        "gate_latitude": "24.467240000000000",
        "gate_longitude": "39.611210000000000"
      },
      {
        "distance": 760,
        "gate_name": "Bilal Gate",
        "gate_number": 38,
        "gate_latitude": "24.467709000000000",
        "gate_longitude": "39.611700000000000"
      },
      {
        "distance": 760,
        "gate_name": "Baqee gate",
        "gate_number": 41,
        "gate_latitude": "24.467480000000000",
        "gate_longitude": "39.611830000000000"
      },
      {
        "distance": 810,
        "gate_name": "Makkah Gate",
        "gate_number": 37,
        "gate_latitude": "24.467653000000000",
        "gate_longitude": "39.612354000000000"
      },
      {
        "distance": 830,
        "gate_name": "Umar Bin Khataab Gate",
        "gate_number": 18,
        "gate_latitude": "24.469954000000000",
        "gate_longitude": "39.610130000000000"
      },
      {
        "distance": 840,
        "gate_name": "Badr Gate",
        "gate_number": 19,
        "gate_latitude": "24.469847000000000",
        "gate_longitude": "39.610504000000000"
      },
      {
        "distance": 870,
        "gate_name": "King Fahd Gate",
        "gate_number": 20,
        "gate_latitude": "24.469950000000000",
        "gate_longitude": "39.610870000000000"
      },
      {
        "distance": 880,
        "gate_name": "King Fahd Gate",
        "gate_number": 21,
        "gate_latitude": "24.469920000000000",
        "gate_longitude": "39.611100000000000"
      },
      {
        "distance": 900,
        "gate_name": "King Fahd Gate",
        "gate_number": 22,
        "gate_latitude": "24.469948000000000",
        "gate_longitude": "39.611378000000000"
      },
      {
        "distance": 920,
        "gate_name": "King Abdul Aziz GAte",
        "gate_number": 35,
        "gate_latitude": "24.468110000000000",
        "gate_longitude": "39.613285000000000"
      },
      {
        "distance": 930,
        "gate_name": "King Abdul Aziz Gate",
        "gate_number": 34,
        "gate_latitude": "24.468344000000000",
        "gate_longitude": "39.613290000000000"
      },
      {
        "distance": 940,
        "gate_name": "King Abdul Aziz Gate",
        "gate_number": 33,
        "gate_latitude": "24.468544000000000",
        "gate_longitude": "39.613182000000000"
      },
      {
        "distance": 950,
        "gate_name": "Ali Bin Abi Taleb Gate",
        "gate_number": 32,
        "gate_latitude": "24.468733000000000",
        "gate_longitude": "39.613125000000000"
      }
    ],
    "door_shortest_distance": [],
    "hotel_latitude": 24.463765350144,
    "hotel_longitude": 39.605545024159,
    "address": "زينب بن جحش",
    "amount": 9893.93,
    "discount_amount": 9893.93,
    "without_discount": 9893.93,
    "is_discount_applied": false,
    "rating": 1,
    "favorite": false,
    "nabawi_distance": 1200,
    "haram_distance": null,
    "amenities": [
      {
        "name": "واي فاي مجاني",
        "amenity_type": "hotel"
      },
      {
        "name": "تكييف",
        "amenity_type": "hotel"
      },
      {
        "name": "غرف لغير المدخنين",
        "amenity_type": "hotel"
      },
      {
        "name": "مصعد",
        "amenity_type": "hotel"
      },
      {
        "name": "موقف سيارات",
        "amenity_type": "hotel"
      },
      {
        "name": "جرس الإنذار",
        "amenity_type": "hotel"
      },
      {
        "name": "أجهزة إنذار الدخان",
        "amenity_type": "hotel"
      },
      {
        "name": "طفايات حريق",
        "amenity_type": "hotel"
      }
    ],
    "meal_title": null,
    "meal_provided": false,
    "providers": [
      {
        "provider": "hudxconnect",
        "vendor": "hudxconnect",
        "amount": 9893.93,
        "hotel_code": "18175_ar-AE",
        "currencyCode": "SAR"
      }
    ],
    "images": {
      "image_url": "//umrah-hotel.s3.amazonaws.com/public/static_image/HotelFrontView8858.jpg",
      "image_webp_url": "https://umrah-hotel.s3.amazonaws.com/public/static_image/hotel/webp/HotelFrontView2121.webp",
      "title": "Hotel Front View",
      "is_default": true,
      "image_type": "Hotel",
      "priority": 1
    },
    "has_special_deal": false,
    "config": {
      "location": "MADEENA"
    }
  },
  {
    "name": "فندق رياض الزهراء",
    "umrah_hotel_code": "4700000354",
    "g_rating": 3.7,
    "g_total": "736",
    "description": "يقع فندق رياض الزهراء على بعد 8 كم من حديقة جبل آحاد، ويوفر غرفاً مكيفة في وسط المدينة المنورة. ويوفر هذا الفندق ذو النجمتين خدمة الواي فاي المجانية ومكتب استقبال يعمل على مدار الساعة وخدمة الغرف. يقع مكان الإقامة المخصص لغير المدخنين على بعد 7 كم من المدينة مول.\r\n\r\nتضم الغرف في الفندق شرفة مطلة على المدينة. تحتوي الغرف في فندق Riadh Al Zahra على خزانة ملابس وتلفزيون بشاشة مسطحة وحمام خاص.\r\n\r\nيقع مسجد قباء على بعد 3.9 كم من مكان الإقامة، في حين تقع مقبرة البقيع على بعد 2.9 كم من مكان الإقامة. ويعتبر مطار الأمير محمد بن عبد العزيز الدولي المطار الأقرب لفندق رياض الزهراء حيث يقع على بعد 16 كم منه.\r\n\r\nهذه المنطقة المفضلة من المدينة المنورة لدى ضيوفنا بناءً على التقييمات المستقلة.\r\n\r\nنحن نتكلم لغتك!",
    "gate_shortest_distance": [
      {
        "distance": 470,
        "gate_name": "King Saud Gate",
        "gate_number": 9,
        "gate_latitude": "24.468542000000000",
        "gate_longitude": "39.609085000000000"
      },
      {
        "distance": 480,
        "gate_name": "King Saud Gate",
        "gate_number": 7,
        "gate_latitude": "24.468070000000000",
        "gate_longitude": "39.609085000000000"
      },
      {
        "distance": 480,
        "gate_name": "King Saud Gate",
        "gate_number": 8,
        "gate_latitude": "24.468210000000000",
        "gate_longitude": "39.609135000000000"
      },
      {
        "distance": 480,
        "gate_name": "Aqiq gate Gate",
        "gate_number": 11,
        "gate_latitude": "24.468742000000000",
        "gate_longitude": "39.609190000000000"
      },
      {
        "distance": 560,
        "gate_name": "Quba Gate",
        "gate_number": 5,
        "gate_latitude": "24.467772000000000",
        "gate_longitude": "39.609860000000000"
      },
      {
        "distance": 590,
        "gate_name": "Umar Bin Khataab Gate",
        "gate_number": 18,
        "gate_latitude": "24.469954000000000",
        "gate_longitude": "39.610130000000000"
      },
      {
        "distance": 630,
        "gate_name": "Hijrah Gate",
        "gate_number": 4,
        "gate_latitude": "24.467897000000000",
        "gate_longitude": "39.610560000000000"
      },
      {
        "distance": 630,
        "gate_name": "Badr Gate",
        "gate_number": 19,
        "gate_latitude": "24.469847000000000",
        "gate_longitude": "39.610504000000000"
      },
      {
        "distance": 640,
        "gate_name": "Salam Gate",
        "gate_number": 1,
        "gate_latitude": "24.467503000000000",
        "gate_longitude": "39.610596000000000"
      },
      {
        "distance": 640,
        "gate_name": "Rahmah Gate",
        "gate_number": 3,
        "gate_latitude": "24.467587000000000",
        "gate_longitude": "39.610634000000000"
      },
      {
        "distance": 670,
        "gate_name": "King Fahd Gate",
        "gate_number": 20,
        "gate_latitude": "24.469950000000000",
        "gate_longitude": "39.610870000000000"
      },
      {
        "distance": 690,
        "gate_name": "King Fahd Gate",
        "gate_number": 21,
        "gate_latitude": "24.469920000000000",
        "gate_longitude": "39.611100000000000"
      },
      {
        "distance": 710,
        "gate_name": "janayiz Gate",
        "gate_number": 42,
        "gate_latitude": "24.467240000000000",
        "gate_longitude": "39.611210000000000"
      },
      {
        "distance": 720,
        "gate_name": "King Fahd Gate",
        "gate_number": 22,
        "gate_latitude": "24.469948000000000",
        "gate_longitude": "39.611378000000000"
      },